filename,location_id,safe,lively,clean,wealthy,depressing,beautiful,city,lat,long
41.878322_-87.697811_513d2e14fdc9f03587002553_Chicago.JPG,513d2e14fdc9f03587002553,2.32562089169,4.12916414247,5.36488035711,5.60758831468,7.12859502046,7.12859502046,Chicago,41.878322,-87.697811
41.948705_-87.677149_513d34c2fdc9f03587002a61_Chicago.JPG,513d34c2fdc9f03587002a61,5.28850445546,4.58883923201,6.60837116567,4.53135972521,4.34450793734,3.57783732704,Chicago,41.948705,-87.677149
41.917197_-87.725477_513d34aefdc9f03587002a50_Chicago.JPG,513d34aefdc9f03587002a50,3.50048723041,3.48031094006,8.33333333333,3.65329258052,6.22134940717,5.25538111906,Chicago,41.917197,-87.725477
41.946700_-87.696321_513cb626fdc9f035870009f2_Chicago.JPG,513cb626fdc9f035870009f2,2.3221836278,1.98411875469,5.9707701263,3.71563004012,3.14507887642,5.87661203827,Chicago,41.946700,-87.696321
41.761754_-87.701503_513cb527fdc9f035870008f1_Chicago.JPG,513cb527fdc9f035870008f1,2.26492983048,4.34265850686,5.3716080089,5.25549911853,5.3749829208,4.63645107012,Chicago,41.761754,-87.701503
41.926251_-87.744380_513cbf20fdc9f03587001243_Chicago.JPG,513cbf20fdc9f03587001243,3.74884633947,4.13699895997,4.7684948095,6.43581655763,8.33333333333,5.43475495982,Chicago,41.926251,-87.744380
41.864862_-87.725135_513cc122fdc9f0358700144e_Chicago.JPG,513cc122fdc9f0358700144e,5.25664910312,2.87137460922,5.1762474566,7.20272047697,5.9003351589,5.38024059728,Chicago,41.864862,-87.725135
41.827567_-87.601868_513d3104fdc9f03587002796_Chicago.JPG,513d3104fdc9f03587002796,4.17814469774,4.52957977029,5.67301136081,3.31558174299,5.03503500798,6.06710069613,Chicago,41.827567,-87.601868
41.862368_-87.607732_513d361afdc9f03587002b62_Chicago.JPG,513d361afdc9f03587002b62,2.36867734827,3.36185223847,6.20579060495,6.1889648576,6.02907859806,4.08377561134,Chicago,41.862368,-87.607732
41.750850_-87.572308_513d2d16fdc9f03587002497_Chicago.JPG,513d2d16fdc9f03587002497,5.25006014167,3.06396294883,4.23814478941,5.79576711111,5.72782181558,3.80496667807,Chicago,41.750850,-87.572308
41.745304_-87.730463_513d3496fdc9f03587002a40_Chicago.JPG,513d3496fdc9f03587002a40,4.77622827798,3.78932379318,5.03354713103,4.54136726654,5.54965837584,5.50603305697,Chicago,41.745304,-87.730463
41.749434_-87.723089_513cc066fdc9f0358700138c_Chicago.JPG,513cc066fdc9f0358700138c,2.40143056011,4.35466894656,5.61515898202,5.66401664686,5.49799248389,4.64265877695,Chicago,41.749434,-87.723089
41.862481_-87.663885_513cbe32fdc9f03587001163_Chicago.JPG,513cbe32fdc9f03587001163,2.34710141203,2.46947990451,4.47920974506,6.8451889673,3.93145729733,4.46446552235,Chicago,41.862481,-87.663885
41.855010_-87.814527_513cc934fdc9f03587001bec_Chicago.JPG,513cc934fdc9f03587001bec,2.21948632076,3.58387394292,6.25594324675,5.02343092815,4.74938563183,6.22134940717,Chicago,41.855010,-87.814527
41.871703_-87.784700_513d2fcefdc9f035870026a3_Chicago.JPG,513d2fcefdc9f035870026a3,2.53654001296,4.6764481258,5.14927645809,5.79651612416,7.12859502046,3.78190984436,Chicago,41.871703,-87.784700
41.931215_-87.795469_513cb886fdc9f03587000c1f_Chicago.JPG,513cb886fdc9f03587000c1f,3.08017631835,4.60123369964,6.04845637836,4.05174187224,4.88003258101,4.92088543752,Chicago,41.931215,-87.795469
41.871786_-87.712879_513cbb88fdc9f03587000eec_Chicago.JPG,513cbb88fdc9f03587000eec,3.28070156613,5.0773996604,5.76259511077,6.18657131213,4.79711792161,7.12859502046,Chicago,41.871786,-87.712879
41.770466_-87.804861_513cc874fdc9f03587001b38_Chicago.JPG,513cc874fdc9f03587001b38,4.2851528474,6.22134940717,6.60837116567,6.40459428019,7.09575178289,4.9525477173,Chicago,41.770466,-87.804861
41.939890_-87.735371_513d32fafdc9f03587002919_Chicago.JPG,513d32fafdc9f03587002919,4.57573540078,4.70603934248,4.93408866425,5.05413154879,6.10359284967,5.88321372696,Chicago,41.939890,-87.735371
41.888383_-87.718550_513cc390fdc9f035870016a2_Chicago.JPG,513cc390fdc9f035870016a2,5.94426560596,3.76240510876,7.12859502046,5.86709935874,7.15136224625,6.20807861598,Chicago,41.888383,-87.718550
41.780772_-87.796108_513cb62afdc9f035870009f7_Chicago.JPG,513cb62afdc9f035870009f7,5.5866137921,4.01880822998,5.92984245868,6.74514203722,5.6042706024,5.99588066289,Chicago,41.780772,-87.796108
41.920477_-87.633987_513cbedefdc9f03587001202_Chicago.JPG,513cbedefdc9f03587001202,3.42549201057,3.53545241284,5.49914484896,5.48744905164,8.33333333333,4.59660639467,Chicago,41.920477,-87.633987
41.910129_-87.769115_513cb842fdc9f03587000bd9_Chicago.JPG,513cb842fdc9f03587000bd9,4.58721778301,3.71847202042,6.47436515156,5.30947428839,5.44134078494,5.38364946019,Chicago,41.910129,-87.769115
41.794213_-87.782934_513d313afdc9f035870027c1_Chicago.JPG,513d313afdc9f035870027c1,2.49827571705,3.03562380863,6.21620761189,6.40459428019,5.87287208583,4.56013720599,Chicago,41.794213,-87.782934
41.777502_-87.734939_513cc29afdc9f035870015ae_Chicago.JPG,513cc29afdc9f035870015ae,3.87776847359,4.04751274365,7.12859502046,6.47436515156,5.40507685923,4.07807837075,Chicago,41.777502,-87.734939
41.850592_-87.663559_513d3244fdc9f03587002892_Chicago.JPG,513d3244fdc9f03587002892,2.52648779505,3.91004270603,5.81544792087,5.65431996505,4.06001267189,4.93279922945,Chicago,41.850592,-87.663559
41.936368_-87.794414_513cbf08fdc9f0358700122a_Chicago.JPG,513cbf08fdc9f0358700122a,3.92377340846,3.95454317557,5.36824123368,5.87144004884,5.67439359217,3.72131010539,Chicago,41.936368,-87.794414
41.749836_-87.703000_513cbde0fdc9f03587001113_Chicago.JPG,513cbde0fdc9f03587001113,5.62070172109,5.61437334289,4.58268438236,5.43662952216,4.52759045575,4.11304757415,Chicago,41.749836,-87.703000
41.958797_-87.734108_513cb926fdc9f03587000cb5_Chicago.JPG,513cb926fdc9f03587000cb5,2.64250157446,3.5028408387,5.22585990885,5.95039947151,5.58441236392,6.09928758516,Chicago,41.958797,-87.734108
41.858791_-87.764113_513d3660fdc9f03587002b93_Chicago.JPG,513d3660fdc9f03587002b93,3.94534705465,3.11794436412,6.42190364783,5.09105705687,3.77031730928,3.32568766775,Chicago,41.858791,-87.764113
41.818505_-87.611332_513cc374fdc9f0358700168a_Chicago.JPG,513cc374fdc9f0358700168a,4.2303111903,5.04049617158,5.85870948468,7.12859502046,6.49212611606,5.56963782967,Chicago,41.818505,-87.611332
41.771969_-87.653090_513d38bafdc9f03587002c76_Chicago.JPG,513d38bafdc9f03587002c76,2.88116973154,3.25752049616,6.03816578076,6.53836996675,5.44963287454,3.92233693028,Chicago,41.771969,-87.653090
41.846239_-87.711905_513d3754fdc9f03587002bf2_Chicago.JPG,513d3754fdc9f03587002bf2,4.67616797108,3.3467133604,4.03203234164,3.71338188993,3.83149368371,8.33333333333,Chicago,41.846239,-87.711905
41.815143_-87.727264_513cbc2cfdc9f03587000f7d_Chicago.JPG,513cbc2cfdc9f03587000f7d,6.47436515156,3.46950031878,5.14887603129,5.67093343644,6.64189062593,5.9707701263,Chicago,41.815143,-87.727264
41.959457_-87.693625_513d31aafdc9f03587002819_Chicago.JPG,513d31aafdc9f03587002819,3.34171908759,3.28909632384,4.70353274777,5.64288761207,5.8709715616,6.24594150781,Chicago,41.959457,-87.693625
41.786822_-87.798780_513d328afdc9f035870028ca_Chicago.JPG,513d328afdc9f035870028ca,6.06855195302,4.21908978028,5.74914646788,4.77832178564,6.23810307977,5.13514614537,Chicago,41.786822,-87.798780
41.747674_-87.684013_513d336cfdc9f03587002968_Chicago.JPG,513d336cfdc9f03587002968,3.77708289235,3.36548440395,7.12859502046,5.47984426593,8.33333333333,6.53132089418,Chicago,41.747674,-87.684013
41.767234_-87.630667_513d2fe2fdc9f035870026b3_Chicago.JPG,513d2fe2fdc9f035870026b3,3.40891975045,6.20561667226,5.38910556704,4.95372839101,8.33333333333,5.25499376782,Chicago,41.767234,-87.630667
41.929009_-87.635248_513d2e48fdc9f0358700257a_Chicago.JPG,513d2e48fdc9f0358700257a,2.23144589205,3.95068115469,4.95340492946,6.81224771061,4.02259042436,5.01192552846,Chicago,41.929009,-87.635248
41.845690_-87.635668_513cc320fdc9f03587001630_Chicago.JPG,513cc320fdc9f03587001630,2.84068350929,4.73419497798,5.43738041586,6.01716426281,4.63944336344,4.36501477297,Chicago,41.845690,-87.635668
41.861198_-87.759279_513d32cefdc9f035870028fc_Chicago.JPG,513d32cefdc9f035870028fc,2.42610001432,3.44217668871,5.60005555299,5.65948712133,5.97889681143,4.85097048254,Chicago,41.861198,-87.759279
41.830413_-87.630833_513cc784fdc9f03587001a56_Chicago.JPG,513cc784fdc9f03587001a56,3.60712582469,3.70931267636,4.56048715037,5.35797184381,5.19610659091,4.88666264594,Chicago,41.830413,-87.630833
41.952213_-87.687371_513cb6dafdc9f03587000a97_Chicago.JPG,513cb6dafdc9f03587000a97,6.47436515156,3.76798092253,5.91924136134,5.15568449445,4.43654740347,4.98100063002,Chicago,41.952213,-87.687371
41.809706_-87.591871_513cbf32fdc9f03587001252_Chicago.JPG,513cbf32fdc9f03587001252,2.27585649861,3.76048882907,6.07308263277,4.48647858957,5.86463656347,4.71232908383,Chicago,41.809706,-87.591871
41.805318_-87.643020_513d3888fdc9f03587002c60_Chicago.JPG,513d3888fdc9f03587002c60,2.40575700487,4.51641491425,6.47847863137,6.21620761189,6.47436515156,5.93425703061,Chicago,41.805318,-87.643020
41.829929_-87.743633_513cb58cfdc9f03587000956_Chicago.JPG,513cb58cfdc9f03587000956,3.28156508469,3.33514142434,4.30575399901,5.09711766785,6.24679245609,4.65580478267,Chicago,41.829929,-87.743633
41.827534_-87.667873_513cc840fdc9f03587001b07_Chicago.JPG,513cc840fdc9f03587001b07,3.07379829242,2.51112733953,4.68536880555,3.8732113734,7.15136224625,5.85788285791,Chicago,41.827534,-87.667873
41.799373_-87.785679_513cc3f4fdc9f03587001702_Chicago.JPG,513cc3f4fdc9f03587001702,3.54908720055,4.18664210087,5.51270448905,6.81224771061,4.95744032615,4.78608330115,Chicago,41.799373,-87.785679
41.807064_-87.660081_513cb5a4fdc9f0358700096d_Chicago.JPG,513cb5a4fdc9f0358700096d,2.50747454454,7.079458613,8.33333333333,5.14086558755,5.68818959639,6.47436515156,Chicago,41.807064,-87.660081
41.753282_-87.576016_513cbe76fdc9f035870011a3_Chicago.JPG,513cbe76fdc9f035870011a3,4.30228655652,4.36480318193,4.4987977751,7.15136224625,7.30626255536,6.06616809641,Chicago,41.753282,-87.576016
41.833806_-87.727923_513cbe70fdc9f0358700119d_Chicago.JPG,513cbe70fdc9f0358700119d,3.86967383254,3.54445225268,5.19469415264,5.14081285567,8.33333333333,4.82770490906,Chicago,41.833806,-87.727923
41.806545_-87.643054_513d3446fdc9f03587002a04_Chicago.JPG,513d3446fdc9f03587002a04,5.54785110037,5.88857279125,4.67526304836,7.12859502046,7.12859502046,3.83650089802,Chicago,41.806545,-87.643054
41.822731_-87.770466_513cc2a6fdc9f035870015ba_Chicago.JPG,513cc2a6fdc9f035870015ba,3.1934735927,3.19902359011,5.71111115076,4.92387249572,5.21844406362,3.59689095842,Chicago,41.822731,-87.770466
41.755453_-87.789332_513cbdc4fdc9f035870010fc_Chicago.JPG,513cbdc4fdc9f035870010fc,2.25299418385,2.97528166723,4.51769644134,3.29207013714,6.75501373345,5.82099245603,Chicago,41.755453,-87.789332
41.802536_-87.769097_513cc09afdc9f035870013c0_Chicago.JPG,513cc09afdc9f035870013c0,2.96599251371,6.47436515156,6.11024910699,6.23366404339,5.15480591421,5.30445091566,Chicago,41.802536,-87.769097
41.740783_-87.800157_513cc38efdc9f035870016a0_Chicago.JPG,513cc38efdc9f035870016a0,2.57365980899,2.75645041113,4.98150159645,6.06503833201,6.06465537249,6.06503833201,Chicago,41.740783,-87.800157
41.894044_-87.747081_513d31dafdc9f0358700283e_Chicago.JPG,513d31dafdc9f0358700283e,3.94378267975,3.49650615658,4.69316696861,4.96759563557,8.33333333333,4.46648874377,Chicago,41.894044,-87.747081
41.947830_-87.651914_513cb9c8fdc9f03587000d4c_Chicago.JPG,513cb9c8fdc9f03587000d4c,2.75241348005,3.31563975567,5.15587826966,5.0149928956,6.40459428019,4.75599031549,Chicago,41.947830,-87.651914
41.876159_-87.726870_513d358cfdc9f03587002af2_Chicago.JPG,513d358cfdc9f03587002af2,5.00739883245,4.75004083345,6.79430575537,6.38621093954,4.36032412987,5.61420228064,Chicago,41.876159,-87.726870
41.846444_-87.803627_513d33f4fdc9f035870029ca_Chicago.JPG,513d33f4fdc9f035870029ca,5.19182709115,4.55010254385,4.63285962129,6.47436515156,5.59027587268,5.06236773508,Chicago,41.846444,-87.803627
41.869749_-87.633502_513d2d90fdc9f035870024f5_Chicago.JPG,513d2d90fdc9f035870024f5,2.79085311184,4.40008696328,6.21620761189,3.40479953777,7.12859502046,6.12560780987,Chicago,41.869749,-87.633502
41.930397_-87.641319_513cbadafdc9f03587000e45_Chicago.JPG,513cbadafdc9f03587000e45,3.79177401876,3.74770617894,4.79607849711,5.65590498323,3.08174787338,5.13649758732,Chicago,41.930397,-87.641319
41.863977_-87.679884_513cc400fdc9f03587001710_Chicago.JPG,513cc400fdc9f03587001710,4.08022418771,4.92398613741,4.88074188113,4.44012019399,6.81224771061,5.18470309233,Chicago,41.863977,-87.679884
41.871868_-87.651741_513d3652fdc9f03587002b89_Chicago.JPG,513d3652fdc9f03587002b89,3.74076155154,3.26787903545,5.33581437309,5.31755377887,8.33333333333,6.09539572446,Chicago,41.871868,-87.651741
41.848930_-87.714902_513cb990fdc9f03587000d19_Chicago.JPG,513cb990fdc9f03587000d19,2.11910966352,6.02783355195,5.02950981577,4.64892499278,8.33333333333,4.62426140215,Chicago,41.848930,-87.714902
41.756927_-87.641753_513d3506fdc9f03587002a90_Chicago.JPG,513d3506fdc9f03587002a90,2.72218726471,3.08494374863,7.12859502046,6.81224771061,4.85877753441,3.52376057182,Chicago,41.756927,-87.641753
41.763287_-87.589148_513d3748fdc9f03587002bec_Chicago.JPG,513d3748fdc9f03587002bec,4.07942575333,3.62478119307,8.33333333333,5.81297837979,7.12859502046,5.1543777043,Chicago,41.763287,-87.589148
41.809518_-87.701559_513d3840fdc9f03587002c45_Chicago.JPG,513d3840fdc9f03587002c45,6.47436515156,2.31187272344,6.40459428019,5.31291559507,7.15789668717,4.085796164,Chicago,41.809518,-87.701559
41.939785_-87.662421_513cb530fdc9f035870008fa_Chicago.JPG,513cb530fdc9f035870008fa,2.22595128362,4.66674379903,7.12859502046,4.60106277531,4.09509478039,4.51738189166,Chicago,41.939785,-87.662421
41.810058_-87.765865_513cbfb4fdc9f035870012dd_Chicago.JPG,513cbfb4fdc9f035870012dd,3.60807826545,3.54979391065,6.21853411613,4.6965835553,5.14337153725,5.76880447668,Chicago,41.810058,-87.765865
41.887561_-87.666972_513d2fa4fdc9f03587002680_Chicago.JPG,513d2fa4fdc9f03587002680,2.4708441598,2.68054994582,5.80071265702,4.35056666485,5.21657476234,5.13315120825,Chicago,41.887561,-87.666972
41.815373_-87.807138_513d356afdc9f03587002ad5_Chicago.JPG,513d356afdc9f03587002ad5,2.02397273984,3.08538603541,3.79241939383,7.12859502046,5.16755466551,5.30883832809,Chicago,41.815373,-87.807138
41.837145_-87.613470_513cb66cfdc9f03587000a36_Chicago.JPG,513cb66cfdc9f03587000a36,4.5634847862,3.66925284411,7.12859502046,4.57345606285,7.12859502046,5.28009894793,Chicago,41.837145,-87.613470
41.949493_-87.808367_513cc7b2fdc9f03587001a85_Chicago.JPG,513cc7b2fdc9f03587001a85,2.49568240723,2.34660716081,5.72313611142,5.28003444101,5.17555226313,5.87381877481,Chicago,41.949493,-87.808367
41.962984_-87.711492_513cc526fdc9f0358700182e_Chicago.JPG,513cc526fdc9f0358700182e,3.58527026963,2.78007528434,5.8624370064,5.22484605744,6.87089471807,6.07747062307,Chicago,41.962984,-87.711492
41.791328_-87.666967_513cc6aafdc9f0358700198b_Chicago.JPG,513cc6aafdc9f0358700198b,2.63606588275,2.94916715517,4.30355580951,4.71935274514,5.03224285694,3.86674065672,Chicago,41.791328,-87.666967
41.803981_-87.611924_513d350afdc9f03587002a93_Chicago.JPG,513d350afdc9f03587002a93,3.31647888751,2.68688403874,3.66660724431,4.96775492795,5.0802816299,4.99416488178,Chicago,41.803981,-87.611924
41.815633_-87.787383_513d37fafdc9f03587002c2c_Chicago.JPG,513d37fafdc9f03587002c2c,3.45286781214,3.94130162424,4.40892416627,7.12859502046,5.366723114,7.12859502046,Chicago,41.815633,-87.787383
41.863983_-87.792488_513cb72efdc9f03587000ae2_Chicago.JPG,513cb72efdc9f03587000ae2,2.40545797194,3.60264063669,8.33333333333,5.79888185736,5.57182159569,5.81544792087,Chicago,41.863983,-87.792488
41.766867_-87.594187_513cb348fdc9f03587000724_Chicago.JPG,513cb348fdc9f03587000724,3.00615218417,4.88447508639,8.33333333333,4.86614393469,7.12859502046,4.15194112441,Chicago,41.766867,-87.594187
41.943273_-87.755625_513d345efdc9f03587002a16_Chicago.JPG,513d345efdc9f03587002a16,2.48759207564,3.9166552175,5.9707701263,5.81616270404,6.22519486786,4.80738313919,Chicago,41.943273,-87.755625
41.810735_-87.695498_513d352cfdc9f03587002aa7_Chicago.JPG,513d352cfdc9f03587002aa7,2.99481852303,3.79667585489,6.04064944611,5.61245553496,5.39510479206,5.30497979293,Chicago,41.810735,-87.695498
41.832525_-87.675338_513d30d6fdc9f03587002772_Chicago.JPG,513d30d6fdc9f03587002772,2.94918158602,3.20941287324,5.85935673934,4.88889335811,7.12859502046,4.10047029452,Chicago,41.832525,-87.675338
41.925378_-87.652921_513cb7eafdc9f03587000b8b_Chicago.JPG,513cb7eafdc9f03587000b8b,3.04854613851,2.41430322802,6.06503833201,4.43366105026,5.58478286115,5.86933896571,Chicago,41.925378,-87.652921
41.825767_-87.776680_513cb996fdc9f03587000d20_Chicago.JPG,513cb996fdc9f03587000d20,4.0064331706,3.5910218756,7.12859502046,7.21611514002,5.82099245603,5.28218999803,Chicago,41.825767,-87.776680
41.864130_-87.711079_513cbc46fdc9f03587000f98_Chicago.JPG,513cbc46fdc9f03587000f98,2.31762944588,4.0176756605,7.12859502046,4.74283499798,5.81457149526,4.66620612682,Chicago,41.864130,-87.711079
41.934232_-87.635818_513d35e0fdc9f03587002b36_Chicago.JPG,513d35e0fdc9f03587002b36,3.48394699449,4.66961222133,6.00316359459,5.06672316615,5.43662952216,5.9071239866,Chicago,41.934232,-87.635818
41.756272_-87.714277_513d32e4fdc9f0358700290d_Chicago.JPG,513d32e4fdc9f0358700290d,3.16062579201,6.00057123677,4.91209016769,6.23329767908,5.99087499065,3.76239996962,Chicago,41.756272,-87.714277
41.788532_-87.596392_513cc45cfdc9f03587001769_Chicago.JPG,513cc45cfdc9f03587001769,2.32329296216,2.59943671068,4.43337875564,7.12859502046,4.72405504413,5.06663945038,Chicago,41.788532,-87.596392
41.899509_-87.815473_513d31f0fdc9f0358700284f_Chicago.JPG,513d31f0fdc9f0358700284f,2.81630102705,3.62942890426,5.8500656828,4.8357372292,5.6501367359,5.41784330361,Chicago,41.899509,-87.815473
41.839746_-87.782107_513cc5c0fdc9f035870018b6_Chicago.JPG,513cc5c0fdc9f035870018b6,2.75180630062,3.72032841285,6.15685062728,4.90689193541,5.72673762366,5.42212222451,Chicago,41.839746,-87.782107
41.864236_-87.607740_513d3242fdc9f03587002890_Chicago.JPG,513d3242fdc9f03587002890,4.4230842292,3.44004410979,6.464014115,4.89791612602,5.19449441234,4.79569716116,Chicago,41.864236,-87.607740
41.905847_-87.670380_513d2daafdc9f03587002508_Chicago.JPG,513d2daafdc9f03587002508,2.29777376057,3.65789805286,4.63886617633,7.15136224625,7.27338151617,5.39312293117,Chicago,41.905847,-87.670380
41.786279_-87.674081_513cc4defdc9f035870017e5_Chicago.JPG,513cc4defdc9f035870017e5,4.0044106815,4.45196774416,4.89357012028,3.70387155645,3.82262280011,4.44675491476,Chicago,41.786279,-87.674081
41.891329_-87.642263_513cc26afdc9f03587001581_Chicago.JPG,513cc26afdc9f03587001581,3.74959681401,5.29118340339,6.47436515156,4.84556035628,4.41249244415,4.13650513842,Chicago,41.891329,-87.642263
41.769778_-87.659093_513d368cfdc9f03587002baa_Chicago.JPG,513d368cfdc9f03587002baa,4.96761366801,2.68986510709,7.11531961999,4.77360610157,6.00057123677,5.16347589475,Chicago,41.769778,-87.659093
41.873927_-87.783018_513d35c8fdc9f03587002b25_Chicago.JPG,513d35c8fdc9f03587002b25,2.87835300789,3.39610181341,5.65948712133,8.33333333333,6.56965939612,5.51206601548,Chicago,41.873927,-87.783018
41.952154_-87.772904_513d2fbcfdc9f03587002694_Chicago.JPG,513d2fbcfdc9f03587002694,3.02852818683,3.15691416503,6.06503833201,5.61212996527,5.81544792087,4.33385390123,Chicago,41.952154,-87.772904
41.935181_-87.664613_513cbfdafdc9f03587001306_Chicago.JPG,513cbfdafdc9f03587001306,4.24186198221,3.16655818535,4.04547430529,4.45805315192,4.76571589879,3.86787345004,Chicago,41.935181,-87.664613
41.806098_-87.653951_513cc380fdc9f03587001693_Chicago.JPG,513cc380fdc9f03587001693,4.01167119114,4.61257556998,5.40764404075,5.81544792087,5.32154504732,3.92547557643,Chicago,41.806098,-87.653951
41.759846_-87.600523_513cbb7afdc9f03587000ee0_Chicago.JPG,513cbb7afdc9f03587000ee0,5.26266011049,3.87292274924,3.9765958208,5.56286547878,6.63962030316,3.3003707051,Chicago,41.759846,-87.600523
41.868642_-87.806319_513cc9d6fdc9f03587001c7d_Chicago.JPG,513cc9d6fdc9f03587001c7d,2.89572427335,4.2665530978,6.81224771061,7.12859502046,5.64643015683,5.35563650032,Chicago,41.868642,-87.806319
41.934462_-87.653152_513cb7dcfdc9f03587000b7c_Chicago.JPG,513cb7dcfdc9f03587000b7c,2.97165559751,3.52465036453,7.12859502046,5.41997576542,4.84562741565,3.16244637439,Chicago,41.934462,-87.653152
41.748525_-87.552836_513d306cfdc9f03587002721_Chicago.JPG,513d306cfdc9f03587002721,5.82099245603,2.90786148548,5.96926240191,4.29946816219,4.84218744684,3.95589062795,Chicago,41.748525,-87.552836
41.750024_-87.656156_513cb568fdc9f03587000932_Chicago.JPG,513cb568fdc9f03587000932,2.61549672044,3.50786390719,6.22174767073,6.26902060994,6.33410215284,4.34206706137,Chicago,41.750024,-87.656156
41.870442_-87.764245_513d3420fdc9f035870029e6_Chicago.JPG,513d3420fdc9f035870029e6,4.0200482262,3.96123810142,5.80324318674,4.97259689613,4.34077819743,5.41917856769,Chicago,41.870442,-87.764245
41.853840_-87.635686_513cc8f8fdc9f03587001bb8_Chicago.JPG,513cc8f8fdc9f03587001bb8,2.69690640574,4.70629157446,5.0088412571,5.56800793477,4.99336062273,5.2360138197,Chicago,41.853840,-87.635686
41.884271_-87.627877_513cb516fdc9f035870008df_Chicago.JPG,513cb516fdc9f035870008df,5.64540358247,6.21620761189,5.68980071192,5.16015934785,6.20346821687,4.41624764457,Chicago,41.884271,-87.627877
41.886689_-87.662080_513cbeb6fdc9f035870011e0_Chicago.JPG,513cbeb6fdc9f035870011e0,3.13846953302,3.64467230399,5.90716268512,5.19427723498,6.23723820427,4.54045915651,Chicago,41.886689,-87.662080
41.846514_-87.723380_513d2d98fdc9f035870024fd_Chicago.JPG,513d2d98fdc9f035870024fd,2.57201052884,3.22393979889,6.29572686654,4.89917913493,6.47436515156,5.66355004677,Chicago,41.846514,-87.723380
41.912015_-87.704552_513cbf07fdc9f03587001228_Chicago.JPG,513cbf07fdc9f03587001228,3.56325111363,4.07580221194,6.21620761189,4.92080406652,6.47436515156,3.83344743102,Chicago,41.912015,-87.704552
41.803409_-87.725902_513cb8fafdc9f03587000c8e_Chicago.JPG,513cb8fafdc9f03587000c8e,3.34860328611,2.49725432299,4.90424258687,6.40459428019,5.5582801553,4.54511421843,Chicago,41.803409,-87.725902
41.766098_-87.668717_513cc0e8fdc9f03587001410_Chicago.JPG,513cc0e8fdc9f03587001410,2.46706740175,3.01123368463,6.27656586014,7.11100988223,4.62949398937,8.33333333333,Chicago,41.766098,-87.668717
41.831897_-87.811001_513cc27efdc9f03587001597_Chicago.JPG,513cc27efdc9f03587001597,2.90073554648,3.62550481442,8.33333333333,5.80946332642,8.33333333333,4.82439130458,Chicago,41.831897,-87.811001
41.785906_-87.663159_513d32dcfdc9f03587002906_Chicago.JPG,513d32dcfdc9f03587002906,4.73114830958,2.91074095941,6.70684421177,6.47436515156,7.20416616935,4.21110653182,Chicago,41.785906,-87.663159
41.968354_-87.794240_513cb2eefdc9f035870006d1_Chicago.JPG,513cb2eefdc9f035870006d1,5.81544792087,2.96665940501,5.26785036336,3.95993345957,5.81944735548,4.44427411404,Chicago,41.968354,-87.794240
41.851840_-87.699835_513cc58afdc9f03587001883_Chicago.JPG,513cc58afdc9f03587001883,2.91702442225,4.07542937302,4.98566536663,6.87089471807,8.33333333333,4.87424300072,Chicago,41.851840,-87.699835
41.750780_-87.661826_513cb5c0fdc9f03587000986_Chicago.JPG,513cb5c0fdc9f03587000986,6.06503833201,3.35092902309,5.158892579,3.82067136232,4.17841001475,4.81114936779,Chicago,41.750780,-87.661826
41.927660_-87.725627_513cc280fdc9f03587001598_Chicago.JPG,513cc280fdc9f03587001598,2.18116463096,4.57891605535,7.23888225001,3.75869431538,7.0950338219,4.15401079233,Chicago,41.927660,-87.725627
41.828653_-87.706934_513d2fdafdc9f035870026ac_Chicago.JPG,513d2fdafdc9f035870026ac,2.9558954864,3.04428632671,6.40459428019,3.99678892266,4.20559121816,4.49495612343,Chicago,41.828653,-87.706934
41.942324_-87.788649_513cc078fdc9f035870013a0_Chicago.JPG,513cc078fdc9f035870013a0,3.72705276435,2.75203722705,6.20583610984,6.22134940717,4.95762005771,5.85870948468,Chicago,41.942324,-87.788649
41.884290_-87.653449_513cc458fdc9f03587001765_Chicago.JPG,513cc458fdc9f03587001765,3.18727310317,3.69955568894,3.87783643254,4.02433171126,5.2826189294,6.13829967509,Chicago,41.884290,-87.653449
41.946826_-87.719338_513cb674fdc9f03587000a3d_Chicago.JPG,513cb674fdc9f03587000a3d,2.58727934772,2.91623294763,7.12859502046,7.12859502046,6.21753699587,5.91624520682,Chicago,41.946826,-87.719338
41.961767_-87.655876_513cbde4fdc9f03587001117_Chicago.JPG,513cbde4fdc9f03587001117,3.41704548976,2.78058557166,6.21224278856,5.67603608367,6.33283667689,4.53574248115,Chicago,41.961767,-87.655876
41.870120_-87.755161_513cbad6fdc9f03587000e3f_Chicago.JPG,513cbad6fdc9f03587000e3f,3.3948332171,3.6907649752,7.12859502046,4.58887913991,5.6565447521,4.27709311464,Chicago,41.870120,-87.755161
41.904318_-87.624711_513d3702fdc9f03587002bd0_Chicago.JPG,513d3702fdc9f03587002bd0,4.16045762912,3.12523874391,5.94112262655,4.72158085889,6.21620761189,3.98166632114,Chicago,41.904318,-87.624711
41.813617_-87.629625_513cc306fdc9f03587001612_Chicago.JPG,513cc306fdc9f03587001612,2.57818783215,4.85492573956,4.11073241452,6.46535064078,6.15002021282,4.43410809349,Chicago,41.813617,-87.629625
41.767228_-87.605623_513cbac0fdc9f03587000e2b_Chicago.JPG,513cbac0fdc9f03587000e2b,3.67734700332,5.56018864674,6.41265373077,5.29883884441,5.04982055762,5.26174038088,Chicago,41.767228,-87.605623
41.807381_-87.718655_513cb83afdc9f03587000bd1_Chicago.JPG,513cb83afdc9f03587000bd1,3.58791402067,3.79752685604,4.76510817045,5.13016010731,5.50257431308,3.73571441254,Chicago,41.807381,-87.718655
41.746175_-87.580637_513cc2bcfdc9f035870015ce_Chicago.JPG,513cc2bcfdc9f035870015ce,4.69095342574,5.06668668543,6.52733042357,6.06503833201,7.12859502046,5.33164775289,Chicago,41.746175,-87.580637
41.871414_-87.679672_513cc4a0fdc9f035870017a6_Chicago.JPG,513cc4a0fdc9f035870017a6,3.10361150544,5.45120218835,7.12859502046,5.32323697769,6.1629053045,5.29313298334,Chicago,41.871414,-87.679672
41.879515_-87.625288_513cb330fdc9f0358700070f_Chicago.JPG,513cb330fdc9f0358700070f,2.23381603216,4.18979770297,6.00942641708,4.90509607192,4.05384662799,4.02212880874,Chicago,41.879515,-87.625288
41.858310_-87.761656_513d2d96fdc9f035870024fb_Chicago.JPG,513d2d96fdc9f035870024fb,6.14768251812,4.11215474904,5.70602597451,4.96368159043,5.9707701263,5.36475796449,Chicago,41.858310,-87.761656
41.890526_-87.708833_513cb9d6fdc9f03587000d59_Chicago.JPG,513cb9d6fdc9f03587000d59,3.16357900494,4.10132280867,3.42538494352,3.94248977139,3.59836253859,6.21620761189,Chicago,41.890526,-87.708833
41.925838_-87.748826_513cc9d2fdc9f03587001c79_Chicago.JPG,513cc9d2fdc9f03587001c79,2.66422691499,4.63712496429,4.71599513841,5.78596839807,7.12859502046,5.25874053326,Chicago,41.925838,-87.748826
41.841379_-87.796707_513d2d6afdc9f035870024d9_Chicago.JPG,513d2d6afdc9f035870024d9,3.42871272833,2.94465528768,5.35332331121,5.38073234539,5.55019854707,4.46824400545,Chicago,41.841379,-87.796707
41.917923_-87.786475_513cbce8fdc9f03587001028_Chicago.JPG,513cbce8fdc9f03587001028,2.85909298486,3.86362209581,6.47436515156,6.47436515156,6.81224771061,6.47436515156,Chicago,41.917923,-87.786475
41.783543_-87.763154_513cc05afdc9f03587001380_Chicago.JPG,513cc05afdc9f03587001380,4.83046595777,4.5732960991,6.21224278856,7.12859502046,5.97871433467,5.10557693504,Chicago,41.783543,-87.763154
41.834829_-87.687279_513cb54efdc9f0358700091a_Chicago.JPG,513cb54efdc9f0358700091a,5.32218057877,3.76689774681,5.72848538745,6.10710410889,6.20346821687,5.63911025884,Chicago,41.834829,-87.687279
41.953613_-87.731130_513cb8aafdc9f03587000c42_Chicago.JPG,513cb8aafdc9f03587000c42,5.66919988336,4.07257184899,5.37472330642,5.42282718075,5.67044334447,4.34712246472,Chicago,41.953613,-87.731130
41.803418_-87.742953_513d32f8fdc9f03587002918_Chicago.JPG,513d32f8fdc9f03587002918,3.64142156411,2.42971330382,4.38124027607,5.51716925699,5.10804668902,4.73175329735,Chicago,41.803418,-87.742953
41.902476_-87.816909_513cb508fdc9f035870008cd_Chicago.JPG,513cb508fdc9f035870008cd,3.23166443946,3.08149163383,7.19919145226,5.94415308681,5.81544792087,3.65515953438,Chicago,41.902476,-87.816909
41.808693_-87.658311_513cbee4fdc9f03587001208_Chicago.JPG,513cbee4fdc9f03587001208,5.31161584128,5.27488199299,6.47436515156,5.21389482145,8.33333333333,4.83187699228,Chicago,41.808693,-87.658311
41.805826_-87.681914_513d3208fdc9f03587002861_Chicago.JPG,513d3208fdc9f03587002861,2.90637414465,4.24813864346,4.1581419717,5.85905104712,6.15969761286,4.89360083288,Chicago,41.805826,-87.681914
41.832242_-87.674613_513cbc10fdc9f03587000f62_Chicago.JPG,513cbc10fdc9f03587000f62,2.73447885409,4.31140342901,6.21620761189,6.16763336923,4.00534809588,4.31823763145,Chicago,41.832242,-87.674613
41.839370_-87.728061_513cc33cfdc9f0358700164b_Chicago.JPG,513cc33cfdc9f0358700164b,2.74966155531,6.47436515156,6.464014115,4.51540884791,8.33333333333,4.48430583416,Chicago,41.839370,-87.728061
41.746002_-87.586023_513d3728fdc9f03587002be1_Chicago.JPG,513d3728fdc9f03587002be1,3.54130667775,4.98802431907,8.33333333333,4.30823112994,7.20272047697,4.20445999547,Chicago,41.746002,-87.586023
41.821732_-87.643418_513cc264fdc9f0358700157b_Chicago.JPG,513cc264fdc9f0358700157b,2.62603141385,4.066108061,4.8411845376,5.94921721691,4.73703118452,3.91937916508,Chicago,41.821732,-87.643418
41.776143_-87.641572_513d2f65fdc9f0358700264d_Chicago.JPG,513d2f65fdc9f0358700264d,4.93821631065,4.589019943,5.39574826361,3.65650188621,7.13025495769,4.91702055295,Chicago,41.776143,-87.641572
41.910315_-87.771494_513cc6dcfdc9f035870019bc_Chicago.JPG,513cc6dcfdc9f035870019bc,3.46451360674,5.34847193648,4.64105417365,3.67305884298,5.07360802784,4.68228480907,Chicago,41.910315,-87.771494
41.841438_-87.792550_513cc120fdc9f0358700144b_Chicago.JPG,513cc120fdc9f0358700144b,2.70840537164,3.90769092965,4.57789077178,8.33333333333,8.33333333333,3.16827706845,Chicago,41.841438,-87.792550
41.905382_-87.759752_513cb94afdc9f03587000cd3_Chicago.JPG,513cb94afdc9f03587000cd3,3.13705185834,4.51308628962,4.92711956367,5.81756578937,6.49673765075,3.23253396521,Chicago,41.905382,-87.759752
41.866561_-87.690164_513cc114fdc9f0358700143f_Chicago.JPG,513cc114fdc9f0358700143f,3.02582931377,3.38244005715,5.35797184381,5.82300914215,6.9247471396,4.80378392533,Chicago,41.866561,-87.690164
41.788203_-87.700953_513d38eafdc9f03587002c89_Chicago.JPG,513d38eafdc9f03587002c89,2.29236677803,2.79318853766,4.65182474535,5.08259037995,6.20238511356,5.61068607533,Chicago,41.788203,-87.700953
41.757058_-87.666712_513d2e3cfdc9f03587002570_Chicago.JPG,513d2e3cfdc9f03587002570,2.39653341599,4.66958075883,5.74155609866,5.61906836048,5.25170371652,6.21620761189,Chicago,41.757058,-87.666712
41.773821_-87.729951_513cbf58fdc9f03587001278_Chicago.JPG,513cbf58fdc9f03587001278,2.92447644887,3.31104122483,8.33333333333,5.30833326616,5.2130846103,6.20346821687,Chicago,41.773821,-87.729951
41.900600_-87.631356_513d3568fdc9f03587002ad3_Chicago.JPG,513d3568fdc9f03587002ad3,2.75722897737,3.9262709259,4.4903688987,4.45509524495,7.15136224625,4.91490931857,Chicago,41.900600,-87.631356
41.826493_-87.796236_513d32eefdc9f03587002913_Chicago.JPG,513d32eefdc9f03587002913,5.67157764359,4.152679091,6.67348213412,7.12859502046,5.88331499292,4.17021624172,Chicago,41.826493,-87.796236
41.866015_-87.735970_513d35effdc9f03587002b42_Chicago.JPG,513d35effdc9f03587002b42,3.00196529811,3.87087234647,6.47436515156,5.61068607533,4.53038085035,5.47912507419,Chicago,41.866015,-87.735970
41.803954_-87.603804_513d3074fdc9f03587002727_Chicago.JPG,513d3074fdc9f03587002727,3.62255904774,2.82281567399,8.33333333333,8.33333333333,4.64707735341,5.10646736234,Chicago,41.803954,-87.603804
41.843262_-87.654594_513d3072fdc9f03587002725_Chicago.JPG,513d3072fdc9f03587002725,3.38382538034,1.80361187075,4.00029855186,4.35978899387,5.18643678339,4.13991658673,Chicago,41.843262,-87.654594
41.840445_-87.735310_513d3148fdc9f035870027cd_Chicago.JPG,513d3148fdc9f035870027cd,4.90066294591,3.22552892749,4.50252091967,3.87816740108,6.47436515156,6.58262861254,Chicago,41.840445,-87.735310
41.847831_-87.735504_513d3730fdc9f03587002be3_Chicago.JPG,513d3730fdc9f03587002be3,3.63244621568,6.47436515156,5.30799095951,5.67389788555,5.71941044871,4.83707235638,Chicago,41.847831,-87.735504
41.905573_-87.777915_513d3132fdc9f035870027bb_Chicago.JPG,513d3132fdc9f035870027bb,6.47436515156,3.12086263725,5.85870948468,6.47436515156,6.52198231755,6.47436515156,Chicago,41.905573,-87.777915
41.789176_-87.712871_513cc8c8fdc9f03587001b84_Chicago.JPG,513cc8c8fdc9f03587001b84,3.32901982714,2.92769122106,7.12859502046,5.02655711773,6.00898441478,6.22134940717,Chicago,41.789176,-87.712871
41.819095_-87.682865_513cc854fdc9f03587001b1d_Chicago.JPG,513cc854fdc9f03587001b1d,2.65962985025,4.40748028297,5.04695838323,6.464014115,6.20177188446,4.05927785669,Chicago,41.819095,-87.682865
41.753214_-87.590471_513d3128fdc9f035870027b3_Chicago.JPG,513d3128fdc9f035870027b3,2.77124739169,2.86300359866,6.47436515156,5.8826218602,7.12859502046,3.29096601739,Chicago,41.753214,-87.590471
41.747590_-87.609514_513cb2f4fdc9f035870006d7_Chicago.JPG,513cb2f4fdc9f035870006d7,3.19058239895,3.33783169277,5.68064347013,7.12859502046,6.464014115,4.354944301,Chicago,41.747590,-87.609514
41.777305_-87.601601_513cc350fdc9f03587001662_Chicago.JPG,513cc350fdc9f03587001662,2.79802401696,3.86274634008,8.33333333333,5.30929222395,6.31503769364,6.22134940717,Chicago,41.777305,-87.601601
41.741887_-87.628020_513d3582fdc9f03587002aea_Chicago.JPG,513d3582fdc9f03587002aea,6.47436515156,5.44512084796,6.47436515156,7.12859502046,5.76620226637,4.13632882213,Chicago,41.741887,-87.628020
41.771395_-87.688311_513d3313fdc9f0358700292c_Chicago.JPG,513d3313fdc9f0358700292c,2.97250987058,3.37643620352,5.06017257136,4.76084369028,7.12859502046,4.27286225268,Chicago,41.771395,-87.688311
41.804017_-87.738794_513cbe5dfdc9f0358700118b_Chicago.JPG,513cbe5dfdc9f0358700118b,2.55765405532,3.44789261336,5.9707701263,5.47295395571,5.75234279976,6.25658273847,Chicago,41.804017,-87.738794
41.897091_-87.716355_513cbb54fdc9f03587000ebc_Chicago.JPG,513cbb54fdc9f03587000ebc,2.49352429388,3.27177267023,5.30028797513,4.59840543897,6.81224771061,7.12859502046,Chicago,41.897091,-87.716355
41.910778_-87.656715_513d331cfdc9f03587002931_Chicago.JPG,513d331cfdc9f03587002931,3.1323558177,3.51648841627,4.21092894091,5.09223874997,5.97283044535,3.76725136401,Chicago,41.910778,-87.656715
41.808766_-87.718747_513d30a6fdc9f0358700274d_Chicago.JPG,513d30a6fdc9f0358700274d,2.057665032,4.01862509049,7.12859502046,5.60453472215,4.92690375482,5.4626113067,Chicago,41.808766,-87.718747
41.936858_-87.756944_513d2f80fdc9f03587002663_Chicago.JPG,513d2f80fdc9f03587002663,3.74875397016,3.28482548836,5.75609674887,6.22021662639,4.94685920844,4.43673036199,Chicago,41.936858,-87.756944
41.962382_-87.763989_513cb6bafdc9f03587000a7d_Chicago.JPG,513cb6bafdc9f03587000a7d,2.15748626877,4.52801763304,5.46089494699,3.84504660862,5.82208595471,6.22134940717,Chicago,41.962382,-87.763989
41.744007_-87.547895_513d2ffcfdc9f035870026c8_Chicago.JPG,513d2ffcfdc9f035870026c8,3.13339983098,3.24878539751,6.20346821687,4.34934888911,5.62556348264,5.39039296446,Chicago,41.744007,-87.547895
41.831101_-87.704649_513cc34afdc9f0358700165a_Chicago.JPG,513cc34afdc9f0358700165a,4.11634299656,5.00570482421,6.15306828341,4.70415742371,5.92207090938,5.04257719562,Chicago,41.831101,-87.704649
41.778169_-87.684840_513d34eefdc9f03587002a7f_Chicago.JPG,513d34eefdc9f03587002a7f,3.78213106661,3.76659915381,6.5552538202,6.40459428019,4.28858162079,4.97111372106,Chicago,41.778169,-87.684840
41.742598_-87.766910_513d2e86fdc9f035870025a9_Chicago.JPG,513d2e86fdc9f035870025a9,6.25301367387,3.02521732619,6.24560434584,6.09063814118,6.1440621625,5.31998921003,Chicago,41.742598,-87.766910
41.905684_-87.665098_513d2f83fdc9f03587002666_Chicago.JPG,513d2f83fdc9f03587002666,4.20952832065,3.53971084053,6.47436515156,4.86973899217,5.63396448233,5.00239690174,Chicago,41.905684,-87.665098
41.894329_-87.632593_513d32a6fdc9f035870028da_Chicago.JPG,513d32a6fdc9f035870028da,4.75076566832,3.51470916413,6.98238243585,7.13262139419,6.72531558276,6.47436515156,Chicago,41.894329,-87.632593
41.840163_-87.617187_513cc302fdc9f0358700160e_Chicago.JPG,513cc302fdc9f0358700160e,4.35036819072,5.2828740802,3.82079064777,5.68645267082,5.85870948468,6.50141239638,Chicago,41.840163,-87.617187
41.780396_-87.729686_513cc24afdc9f0358700155e_Chicago.JPG,513cc24afdc9f0358700155e,3.00106784781,3.58369114605,5.4610312668,5.67726808365,5.44156987381,6.47985397312,Chicago,41.780396,-87.729686
41.823661_-87.598585_513cc1f2fdc9f03587001509_Chicago.JPG,513cc1f2fdc9f03587001509,2.84998200077,5.52238095044,5.65530343135,5.24704524756,4.39879679535,4.69015272002,Chicago,41.823661,-87.598585
41.894446_-87.791862_513d3186fdc9f035870027fe_Chicago.JPG,513d3186fdc9f035870027fe,3.02766943807,3.40266864446,4.67477290088,7.12859502046,4.01525911232,4.37047314073,Chicago,41.894446,-87.791862
41.947028_-87.698023_513cbca6fdc9f03587000ff5_Chicago.JPG,513cbca6fdc9f03587000ff5,6.21620761189,4.79251086256,5.01557223471,5.60696955612,8.33333333333,4.32056455249,Chicago,41.947028,-87.698023
41.812642_-87.795946_513d386efdc9f03587002c58_Chicago.JPG,513d386efdc9f03587002c58,3.20867841974,4.32406827741,5.38914739029,4.63039173084,6.39577535947,6.47436515156,Chicago,41.812642,-87.795946
41.855092_-87.810357_513cc9b0fdc9f03587001c5b_Chicago.JPG,513cc9b0fdc9f03587001c5b,2.25637493325,3.90084791571,4.03044247029,4.16931492948,6.30404920062,4.0826279393,Chicago,41.855092,-87.810357
41.931740_-87.730264_513cc924fdc9f03587001bdd_Chicago.JPG,513cc924fdc9f03587001bdd,2.91142138678,3.74984102919,5.85870948468,5.30178259711,7.1570326724,5.39576532072,Chicago,41.931740,-87.730264
41.843189_-87.641523_513cc0acfdc9f035870013d5_Chicago.JPG,513cc0acfdc9f035870013d5,6.47436515156,6.21620761189,6.47436515156,5.68452633378,4.67990855811,3.72701134663,Chicago,41.843189,-87.641523
41.752446_-87.563823_513cc2c0fdc9f035870015d2_Chicago.JPG,513cc2c0fdc9f035870015d2,5.31702027501,5.16321790711,7.15136224625,7.20322212214,4.29220430698,3.56186602073,Chicago,41.752446,-87.563823
41.809892_-87.632222_513cc460fdc9f0358700176d_Chicago.JPG,513cc460fdc9f0358700176d,3.60286924911,3.27374469939,5.21988038785,4.07061414396,7.14371896062,3.69785781874,Chicago,41.809892,-87.632222
41.942944_-87.783214_513d3428fdc9f035870029ee_Chicago.JPG,513d3428fdc9f035870029ee,3.86268947086,3.69021620012,5.9071239866,5.0904288739,6.52421659099,4.79977093266,Chicago,41.942944,-87.783214
41.767024_-87.643552_513cc73afdc9f03587001a17_Chicago.JPG,513cc73afdc9f03587001a17,4.11228290013,3.54967464645,6.40459428019,5.10630253006,5.52914869209,5.5890492427,Chicago,41.767024,-87.643552
41.946534_-87.715223_513cbcccfdc9f03587001017_Chicago.JPG,513cbcccfdc9f03587001017,2.97195839755,3.32742170806,4.61043884629,7.12859502046,4.09764534941,4.91446341683,Chicago,41.946534,-87.715223
41.870803_-87.783079_513d2f2cfdc9f03587002626_Chicago.JPG,513d2f2cfdc9f03587002626,5.45966046549,5.54507056889,6.74374193998,3.51437143109,5.0148104972,4.51640017469,Chicago,41.870803,-87.783079
41.826698_-87.678800_513cbfd4fdc9f035870012fe_Chicago.JPG,513cbfd4fdc9f035870012fe,6.47436515156,2.74079457971,5.41282382621,4.81322844126,5.9576381191,4.02473985328,Chicago,41.826698,-87.678800
41.748650_-87.578353_513cca06fdc9f03587001cae_Chicago.JPG,513cca06fdc9f03587001cae,3.55827022494,3.44670823142,4.02189219174,8.33333333333,7.20272047697,5.36398389888,Chicago,41.748650,-87.578353
41.814440_-87.640054_513cbc7cfdc9f03587000fce_Chicago.JPG,513cbc7cfdc9f03587000fce,2.67607167243,3.20784262603,5.16766860016,3.92889600995,5.69055701812,3.92845909236,Chicago,41.814440,-87.640054
41.893575_-87.755544_513cca0afdc9f03587001cb0_Chicago.JPG,513cca0afdc9f03587001cb0,5.60880187623,3.9834926006,6.60626123211,6.22134940717,4.58243520544,4.31393425849,Chicago,41.893575,-87.755544
41.845952_-87.733318_513cb61afdc9f035870009e6_Chicago.JPG,513cb61afdc9f035870009e6,3.08110013131,4.89778914741,4.01791240063,3.96313386318,4.673348496,4.32297455153,Chicago,41.845952,-87.733318
41.948099_-87.734657_513cb612fdc9f035870009df_Chicago.JPG,513cb612fdc9f035870009df,2.58623530549,3.69955254258,6.47436515156,4.20866295353,4.61900423062,3.44670067909,Chicago,41.948099,-87.734657
41.896919_-87.634225_513cb7fafdc9f03587000b97_Chicago.JPG,513cb7fafdc9f03587000b97,2.19540652408,2.78201580872,4.39827413793,5.1522516235,5.81085588187,6.20346821687,Chicago,41.896919,-87.634225
41.792288_-87.688870_513cc9bafdc9f03587001c67_Chicago.JPG,513cc9bafdc9f03587001c67,3.57785100494,5.11197671581,6.09510967899,6.20346821687,4.42533138617,4.50911219875,Chicago,41.792288,-87.688870
41.959803_-87.816040_513cc2d8fdc9f035870015e7_Chicago.JPG,513cc2d8fdc9f035870015e7,3.27756471438,3.49132610063,7.12859502046,5.95091215794,2.92568456736,5.70258989276,Chicago,41.959803,-87.816040
41.922659_-87.712036_513cbed0fdc9f035870011f6_Chicago.JPG,513cbed0fdc9f035870011f6,2.7905738413,3.85237434341,6.04282970924,4.64453606782,4.35371967157,4.67315589608,Chicago,41.922659,-87.712036
41.794894_-87.764250_513cc488fdc9f03587001790_Chicago.JPG,513cc488fdc9f03587001790,3.15218304067,4.13160592388,7.12859502046,4.70636680131,3.5730689745,6.47436515156,Chicago,41.794894,-87.764250
41.749844_-87.700554_513cc1dafdc9f035870014f5_Chicago.JPG,513cc1dafdc9f035870014f5,5.2543194895,3.27120546199,5.47912507419,4.22157627429,5.04431820332,4.73684734185,Chicago,41.749844,-87.700554
41.874544_-87.723013_513cc7b0fdc9f03587001a84_Chicago.JPG,513cc7b0fdc9f03587001a84,1.89904599334,5.30388722782,6.47436515156,5.41081321693,5.85870948468,5.80019892889,Chicago,41.874544,-87.723013
41.753822_-87.750023_513cbacafdc9f03587000e37_Chicago.JPG,513cbacafdc9f03587000e37,2.33206338372,2.81936545118,6.23872531506,7.12859502046,4.48519570991,6.22134940717,Chicago,41.753822,-87.750023
41.916788_-87.796209_513d3228fdc9f0358700287c_Chicago.JPG,513d3228fdc9f0358700287c,6.47436515156,4.64414675951,6.47436515156,5.0836139902,6.40459428019,3.75075793053,Chicago,41.916788,-87.796209
41.786654_-87.671141_513d37b6fdc9f03587002c13_Chicago.JPG,513d37b6fdc9f03587002c13,2.74406956059,4.70042265433,4.04811148814,5.31101807982,5.35797184381,4.42211070515,Chicago,41.786654,-87.671141
41.828662_-87.806023_513cba04fdc9f03587000d83_Chicago.JPG,513cba04fdc9f03587000d83,2.59819549734,4.71492762121,7.12859502046,5.16665630255,5.30732414697,5.85870948468,Chicago,41.828662,-87.806023
41.745301_-87.719333_513cb548fdc9f03587000915_Chicago.JPG,513cb548fdc9f03587000915,2.2972511571,3.13172187402,4.42791351216,5.63984528846,8.33333333333,5.61245553496,Chicago,41.745301,-87.719333
41.939018_-87.733301_513d2e72fdc9f03587002599_Chicago.JPG,513d2e72fdc9f03587002599,5.6767856867,6.47436515156,5.57331839646,6.47436515156,8.33333333333,6.47436515156,Chicago,41.939018,-87.733301
41.848942_-87.778963_513cbd42fdc9f0358700107e_Chicago.JPG,513cbd42fdc9f0358700107e,3.07862314936,3.36479861856,6.07035299166,3.36762787962,4.64001743313,3.9184560767,Chicago,41.848942,-87.778963
41.920243_-87.760937_513cbd96fdc9f035870010ce_Chicago.JPG,513cbd96fdc9f035870010ce,4.14765314749,4.69210409684,5.65172204317,5.78561464664,5.85870948468,3.92571617801,Chicago,41.920243,-87.760937
41.951351_-87.720189_513cc676fdc9f03587001954_Chicago.JPG,513cc676fdc9f03587001954,2.63841197974,3.49595214829,5.25393668565,5.93891655104,4.44922053987,7.12859502046,Chicago,41.951351,-87.720189
41.968376_-87.658869_513d3302fdc9f03587002920_Chicago.JPG,513d3302fdc9f03587002920,3.57656279392,4.04943642232,6.63002337319,4.72882406535,4.49702643978,5.55019854707,Chicago,41.968376,-87.658869
41.925351_-87.802243_513cc83afdc9f03587001b01_Chicago.JPG,513cc83afdc9f03587001b01,4.86486530293,3.07489599376,5.85870948468,5.660971807,4.76490666967,4.65080927752,Chicago,41.925351,-87.802243
41.920011_-87.765822_513cb596fdc9f03587000961_Chicago.JPG,513cb596fdc9f03587000961,3.07487171149,3.24610894007,5.81574218202,5.25565653349,4.2165553571,4.95903163203,Chicago,41.920011,-87.765822
41.799672_-87.781665_513d32aafdc9f035870028de_Chicago.JPG,513d32aafdc9f035870028de,2.14903929348,3.33817595498,5.93098343616,5.11534081418,6.40459428019,5.15538809418,Chicago,41.799672,-87.781665
41.751301_-87.602046_513d322efdc9f03587002882_Chicago.JPG,513d322efdc9f03587002882,4.86065194355,3.82158892681,4.95928432026,5.26527710482,6.47436515156,5.46740213896,Chicago,41.751301,-87.602046
41.853938_-87.766445_513d2f3afdc9f0358700262f_Chicago.JPG,513d2f3afdc9f0358700262f,3.26091518109,3.64412472706,5.35357939571,6.74703785957,5.80331656759,6.09372368422,Chicago,41.853938,-87.766445
41.908229_-87.678350_513cbf64fdc9f03587001287_Chicago.JPG,513cbf64fdc9f03587001287,5.83620660893,4.48536774422,7.12859502046,7.15136224625,5.53616222468,5.50603305697,Chicago,41.908229,-87.678350
41.771628_-87.705968_513d2ccafdc9f0358700245e_Chicago.JPG,513d2ccafdc9f0358700245e,2.54149525146,3.05403698925,6.47436515156,4.93768942515,4.3734086632,5.41457573931,Chicago,41.771628,-87.705968
41.822465_-87.621556_513cc6f4fdc9f035870019d1_Chicago.JPG,513cc6f4fdc9f035870019d1,3.03067515127,3.01456021809,3.77782494644,6.20346821687,5.08984952186,5.86858264416,Chicago,41.822465,-87.621556
41.793186_-87.601980_513cbad4fdc9f03587000e3d_Chicago.JPG,513cbad4fdc9f03587000e3d,2.52429849206,4.82026256746,4.29217957121,5.40976795834,8.33333333333,5.36430613602,Chicago,41.793186,-87.601980
41.845322_-87.776746_513cbecafdc9f035870011ee_Chicago.JPG,513cbecafdc9f035870011ee,4.94250979171,4.05773336048,4.95697917215,4.80424572852,3.76577766594,4.39496776304,Chicago,41.845322,-87.776746
41.825541_-87.646986_513cc3ecfdc9f035870016fb_Chicago.JPG,513cc3ecfdc9f035870016fb,2.84873714227,3.93700709097,5.27742401523,4.40500095423,6.31896908267,3.91081523854,Chicago,41.825541,-87.646986
41.967124_-87.661119_513d38f4fdc9f03587002c8c_Chicago.JPG,513d38f4fdc9f03587002c8c,4.90776193462,3.65556021607,6.31902511186,4.71181770348,6.50726834249,5.3359612403,Chicago,41.967124,-87.661119
41.753667_-87.625857_513cc564fdc9f03587001862_Chicago.JPG,513cc564fdc9f03587001862,2.50527908443,4.83075380153,5.1697412572,4.63853949134,5.63887656861,4.39078602481,Chicago,41.753667,-87.625857
41.861008_-87.785066_513cbf02fdc9f03587001224_Chicago.JPG,513cbf02fdc9f03587001224,3.34679232162,3.67622089897,6.81224771061,4.5109541204,4.55023156756,5.94613749153,Chicago,41.861008,-87.785066
41.902393_-87.691917_513cc5e3fdc9f035870018d4_Chicago.JPG,513cc5e3fdc9f035870018d4,2.76896247579,4.51660686254,5.66101428651,4.51855597358,4.61388076711,5.4942430015,Chicago,41.902393,-87.691917
41.850342_-87.784760_513cbe8afdc9f035870011b9_Chicago.JPG,513cbe8afdc9f035870011b9,3.16650050599,4.0061248162,4.88602766795,5.10315549085,8.33333333333,4.16102666865,Chicago,41.850342,-87.784760
41.755582_-87.579731_513d3744fdc9f03587002beb_Chicago.JPG,513d3744fdc9f03587002beb,6.47436515156,3.84849815389,8.33333333333,6.50870802436,3.95823034094,4.2560536421,Chicago,41.755582,-87.579731
41.882108_-87.774227_513cc1d8fdc9f035870014f3_Chicago.JPG,513cc1d8fdc9f035870014f3,4.07179066115,5.70371509748,6.98809110036,5.06509484579,5.17905164898,5.10652541855,Chicago,41.882108,-87.774227
41.917136_-87.753382_513d30a8fdc9f0358700274f_Chicago.JPG,513d30a8fdc9f0358700274f,2.45486973011,6.2384147617,8.33333333333,5.4636928806,5.0087817349,5.90151660797,Chicago,41.917136,-87.753382
41.900657_-87.665357_513cc914fdc9f03587001bd0_Chicago.JPG,513cc914fdc9f03587001bd0,3.57691992935,4.39726945488,7.12859502046,4.38992595083,4.32126989418,4.76628018984,Chicago,41.900657,-87.665357
41.841551_-87.800355_513d3246fdc9f03587002894_Chicago.JPG,513d3246fdc9f03587002894,2.38784360567,3.60568389147,4.27346482775,8.33333333333,4.68990236645,4.84925318913,Chicago,41.841551,-87.800355
41.747393_-87.558880_513d331efdc9f03587002934_Chicago.JPG,513d331efdc9f03587002934,3.54785736355,2.32689189797,3.70503884198,5.03839994164,6.47436515156,4.99717899923,Chicago,41.747393,-87.558880
41.760797_-87.604182_513cc700fdc9f035870019e0_Chicago.JPG,513cc700fdc9f035870019e0,4.47190089732,2.9332042179,5.25718960032,5.4606634131,6.40459428019,5.01378677798,Chicago,41.760797,-87.604182
41.765003_-87.800722_513cbefcfdc9f03587001221_Chicago.JPG,513cbefcfdc9f03587001221,2.11805584476,3.32381565485,4.82914181241,6.5025229816,3.93792760833,4.71395281359,Chicago,41.765003,-87.800722
41.872482_-87.690176_513d36e2fdc9f03587002bc5_Chicago.JPG,513d36e2fdc9f03587002bc5,3.84599355,2.64733598036,7.12859502046,5.27255712073,7.12859502046,4.65620065478,Chicago,41.872482,-87.690176
41.903607_-87.702177_513cb608fdc9f035870009d4_Chicago.JPG,513cb608fdc9f035870009d4,4.67914840713,6.47436515156,4.6792184243,5.41595534155,4.9716851407,3.78108825672,Chicago,41.903607,-87.702177
41.889704_-87.677618_513cc002fdc9f0358700132c_Chicago.JPG,513cc002fdc9f0358700132c,4.03796705738,3.77344556543,5.90670446322,4.67255198064,5.11424209989,4.64803150975,Chicago,41.889704,-87.677618
41.950656_-87.747156_513d336efdc9f03587002969_Chicago.JPG,513d336efdc9f03587002969,2.52531725691,3.25982616895,5.08132349962,6.47436515156,7.12859502046,5.59027587268,Chicago,41.950656,-87.747156
41.811593_-87.661104_513cb2eafdc9f035870006ce_Chicago.JPG,513cb2eafdc9f035870006ce,3.00806369826,6.47436515156,7.12859502046,3.98271195649,5.57476624049,5.31998921003,Chicago,41.811593,-87.661104
41.831295_-87.697611_513d351cfdc9f03587002a9f_Chicago.JPG,513d351cfdc9f03587002a9f,2.56010258577,4.10509347753,7.12859502046,4.56465728655,5.87858862122,3.99095155591,Chicago,41.831295,-87.697611
41.788248_-87.629106_513d3418fdc9f035870029e1_Chicago.JPG,513d3418fdc9f035870029e1,3.00969693988,4.46989325933,5.97749929742,8.33333333333,4.85245397527,3.79193490888,Chicago,41.788248,-87.629106
41.886876_-87.793929_513cbaeefdc9f03587000e5a_Chicago.JPG,513cbaeefdc9f03587000e5a,3.07321753215,3.09422399369,5.25943394271,6.018828644,5.81544792087,5.00210849908,Chicago,41.886876,-87.793929
41.846591_-87.752141_513cc6c2fdc9f035870019a3_Chicago.JPG,513cc6c2fdc9f035870019a3,2.34966598614,7.36253615781,4.18419624629,7.10013098275,5.4091491184,4.17670577556,Chicago,41.846591,-87.752141
41.886428_-87.779790_513cbf84fdc9f035870012ae_Chicago.JPG,513cbf84fdc9f035870012ae,4.87174628263,3.87176104469,6.87089471807,6.65004755835,7.15223719151,4.84363163813,Chicago,41.886428,-87.779790
41.852908_-87.625668_513d2d62fdc9f035870024d3_Chicago.JPG,513d2d62fdc9f035870024d3,2.7879855817,3.25939163754,5.70774499091,6.47436515156,5.54470747141,4.21862804824,Chicago,41.852908,-87.625668
41.946668_-87.777744_513cc2aefdc9f035870015c3_Chicago.JPG,513cc2aefdc9f035870015c3,4.98110863272,4.03495312371,5.84237650038,3.81386052131,4.86809109005,5.0892590818,Chicago,41.946668,-87.777744
41.923357_-87.727951_513cbd02fdc9f0358700103f_Chicago.JPG,513cbd02fdc9f0358700103f,2.34839105552,4.9592321529,8.33333333333,5.41924847655,5.52085058447,5.16478575543,Chicago,41.923357,-87.727951
41.746751_-87.752206_513cb9e6fdc9f03587000d67_Chicago.JPG,513cb9e6fdc9f03587000d67,4.93664710586,3.0291436148,3.96638172526,6.25663539508,5.54412812748,4.08619563228,Chicago,41.746751,-87.752206
41.773160_-87.644615_513cc87efdc9f03587001b3f_Chicago.JPG,513cc87efdc9f03587001b3f,4.77424817522,5.65612964799,6.39244569759,6.81224771061,5.5840392435,5.21670758964,Chicago,41.773160,-87.644615
41.856960_-87.730396_513cc20dfdc9f03587001525_Chicago.JPG,513cc20dfdc9f03587001525,3.15124499323,5.62302755974,8.33333333333,5.2721296752,4.31848734359,3.03925553899,Chicago,41.856960,-87.730396
41.804017_-87.738794_513cc93cfdc9f03587001bf3_Chicago.JPG,513cc93cfdc9f03587001bf3,4.58181765694,4.6875925935,5.90773240028,7.12859502046,6.8783862122,7.12859502046,Chicago,41.804017,-87.738794
41.934566_-87.792562_513d2d36fdc9f035870024b1_Chicago.JPG,513d2d36fdc9f035870024b1,2.58226364611,3.137161326,3.71726534613,5.27257396887,6.71607861443,6.48196712043,Chicago,41.934566,-87.792562
41.747758_-87.688898_513d3146fdc9f035870027cb_Chicago.JPG,513d3146fdc9f035870027cb,2.22261785486,3.81813318718,5.30495038963,4.77556060238,7.15136224625,4.17002158358,Chicago,41.747758,-87.688898
41.755462_-87.788835_513cbb6afdc9f03587000ed1_Chicago.JPG,513cbb6afdc9f03587000ed1,2.68023557476,5.18967513702,5.86251221819,5.95694949352,6.19077250391,3.55456593119,Chicago,41.755462,-87.788835
41.847890_-87.711213_513cc246fdc9f03587001559_Chicago.JPG,513cc246fdc9f03587001559,2.59018138179,3.09751230341,8.33333333333,7.12859502046,8.33333333333,4.79893094358,Chicago,41.847890,-87.711213
41.777432_-87.750955_513d2eecfdc9f035870025fb_Chicago.JPG,513d2eecfdc9f035870025fb,3.1201835528,3.22442596608,5.60471321202,6.21620761189,5.74421371106,6.40459428019,Chicago,41.777432,-87.750955
41.784842_-87.791825_513d2db6fdc9f0358700250f_Chicago.JPG,513d2db6fdc9f0358700250f,3.43079180676,3.82684965315,7.12859502046,5.54138875636,4.34399174967,3.52244041042,Chicago,41.784842,-87.791825
41.898874_-87.756928_513d2d78fdc9f035870024e4_Chicago.JPG,513d2d78fdc9f035870024e4,4.44280263564,2.72005252319,7.15136224625,4.13884334567,3.39122876157,4.80483530344,Chicago,41.898874,-87.756928
41.761839_-87.595735_513d3180fdc9f035870027f9_Chicago.JPG,513d3180fdc9f035870027f9,3.0757384484,2.80958911067,4.67823306548,5.96990130113,5.7833261352,6.21620761189,Chicago,41.761839,-87.595735
41.808621_-87.662927_513cb512fdc9f035870008d9_Chicago.JPG,513cb512fdc9f035870008d9,3.35084087669,3.0361691761,5.41749499874,5.40738494136,3.58538054113,5.4227477307,Chicago,41.808621,-87.662927
41.940105_-87.810436_513d3712fdc9f03587002bd6_Chicago.JPG,513d3712fdc9f03587002bd6,3.13263632794,3.13519676026,3.70916263106,6.84645219089,6.40459428019,4.95818353433,Chicago,41.940105,-87.810436
41.818531_-87.798849_513d2d7cfdc9f035870024e6_Chicago.JPG,513d2d7cfdc9f035870024e6,2.65823834093,2.48500736061,5.60738903602,5.95292314964,5.32727006448,4.02534664294,Chicago,41.818531,-87.798849
41.828488_-87.724175_513d3112fdc9f035870027a2_Chicago.JPG,513d3112fdc9f035870027a2,2.20497275231,3.62023991302,6.21620761189,4.72900295274,4.11591922064,4.63897926604,Chicago,41.828488,-87.724175
41.938474_-87.774140_513d3238fdc9f03587002887_Chicago.JPG,513d3238fdc9f03587002887,5.03593827636,3.15804368276,7.11100988223,4.74462698595,5.09057576084,5.66256231799,Chicago,41.938474,-87.774140
41.762300_-87.598903_513d2fd0fdc9f035870026a5_Chicago.JPG,513d2fd0fdc9f035870026a5,2.71073032036,3.68795881811,3.75240956031,3.44446819946,7.16271093077,5.63991458692,Chicago,41.762300,-87.598903
41.939671_-87.669921_513cc822fdc9f03587001ae9_Chicago.JPG,513cc822fdc9f03587001ae9,3.91511374852,3.42247443973,5.6649806874,8.33333333333,6.15183176563,6.21620761189,Chicago,41.939671,-87.669921
41.778120_-87.804514_513cc518fdc9f0358700181c_Chicago.JPG,513cc518fdc9f0358700181c,3.81971203865,3.84086543416,6.86717426107,5.84079745191,5.78053597894,5.17768180419,Chicago,41.778120,-87.804514
41.816667_-87.812388_513cc860fdc9f03587001b29_Chicago.JPG,513cc860fdc9f03587001b29,4.57080141756,4.59107340982,5.85161679813,4.39416627616,6.39577535947,4.45619865364,Chicago,41.816667,-87.812388
41.963770_-87.737087_513cb726fdc9f03587000adc_Chicago.JPG,513cb726fdc9f03587000adc,5.81544792087,2.81021493898,5.75975178166,3.72281655161,8.33333333333,4.51236853337,Chicago,41.963770,-87.737087
41.764996_-87.657291_513d2e30fdc9f03587002566_Chicago.JPG,513d2e30fdc9f03587002566,2.4369096184,4.99109515401,8.33333333333,4.15976498534,8.33333333333,4.95910146182,Chicago,41.764996,-87.657291
41.799386_-87.589091_513d35d8fdc9f03587002b30_Chicago.JPG,513d35d8fdc9f03587002b30,3.00320181402,3.35305701547,6.81224771061,7.12859502046,4.60592084166,3.98504980735,Chicago,41.799386,-87.589091
41.760188_-87.557949_513cbe92fdc9f035870011c1_Chicago.JPG,513cbe92fdc9f035870011c1,2.31311373221,2.85420813473,5.21823797324,5.54314748428,7.15136224625,4.32672757052,Chicago,41.760188,-87.557949
41.815412_-87.626175_513cbac5fdc9f03587000e32_Chicago.JPG,513cbac5fdc9f03587000e32,2.87292154599,3.15976296468,4.32691557413,4.82348234291,7.12859502046,4.41968971385,Chicago,41.815412,-87.626175
41.743284_-87.648422_513d34e0fdc9f03587002a74_Chicago.JPG,513d34e0fdc9f03587002a74,3.62210106423,5.81544792087,6.16763336923,5.48631692355,7.19919145226,4.01645996773,Chicago,41.743284,-87.648422
41.959755_-87.751245_513cba4cfdc9f03587000dc5_Chicago.JPG,513cba4cfdc9f03587000dc5,5.07705836243,3.31529253117,5.33571638713,3.63738627179,5.80071265702,3.91262223659,Chicago,41.959755,-87.751245
41.808160_-87.701989_513d31e6fdc9f03587002848_Chicago.JPG,513d31e6fdc9f03587002848,4.14070445666,5.16858867041,5.20573871495,6.91120716798,5.19864127419,5.41968586065,Chicago,41.808160,-87.701989
41.809231_-87.644335_513cb32efdc9f0358700070e_Chicago.JPG,513cb32efdc9f0358700070e,2.41180535056,3.04346473695,5.41693768704,4.63478951897,4.20555744889,3.92597203354,Chicago,41.809231,-87.644335
41.957880_-87.755763_513cc3bafdc9f035870016cd_Chicago.JPG,513cc3bafdc9f035870016cd,2.65060679737,2.67683815919,5.30485616204,4.91198963868,4.95434379767,7.16837551803,Chicago,41.957880,-87.755763
41.794598_-87.757971_513d2ce0fdc9f03587002472_Chicago.JPG,513d2ce0fdc9f03587002472,3.01097534121,2.96329283906,5.32044755099,5.08633848659,6.76136053854,5.07776395585,Chicago,41.794598,-87.757971
41.764667_-87.603871_513d3370fdc9f0358700296b_Chicago.JPG,513d3370fdc9f0358700296b,5.12811218189,5.90670446322,5.11278869557,6.112510773,4.31714929931,4.65951456111,Chicago,41.764667,-87.603871
41.848907_-87.813369_513d384afdc9f03587002c4a_Chicago.JPG,513d384afdc9f03587002c4a,2.25951231901,4.40185135058,6.88741198839,6.08361972402,5.95253063203,4.97930668202,Chicago,41.848907,-87.813369
41.864338_-87.733683_513cc540fdc9f03587001843_Chicago.JPG,513cc540fdc9f03587001843,2.43177198368,3.16171331168,8.33333333333,5.3870500339,6.27470405199,5.42370831684,Chicago,41.864338,-87.733683
41.927279_-87.670399_513cc0f0fdc9f03587001419_Chicago.JPG,513cc0f0fdc9f03587001419,2.70224196988,4.44718848186,4.68586527483,8.33333333333,6.464014115,6.47436515156,Chicago,41.927279,-87.670399
41.855663_-87.615695_513cbc70fdc9f03587000fc2_Chicago.JPG,513cbc70fdc9f03587000fc2,5.48033635302,4.55695081723,4.48428394166,4.86477314726,5.43662952216,5.59356825132,Chicago,41.855663,-87.615695
41.806052_-87.590579_513cb672fdc9f03587000a3b_Chicago.JPG,513cb672fdc9f03587000a3b,2.47749775381,4.78855917534,6.78218920472,5.23181984249,4.89558643414,3.35279541835,Chicago,41.806052,-87.590579
41.886945_-87.645703_513d2f4efdc9f0358700263d_Chicago.JPG,513d2f4efdc9f0358700263d,1.95634828296,6.02717286544,3.99460821287,5.9071239866,4.93685265633,4.61383132692,Chicago,41.886945,-87.645703
41.924436_-87.672661_513cbc24fdc9f03587000f76_Chicago.JPG,513cbc24fdc9f03587000f76,4.50428604907,2.6305295751,4.79690680297,7.00275343604,5.50401024414,5.33831040009,Chicago,41.924436,-87.672661
41.870091_-87.717876_513d2dd4fdc9f03587002524_Chicago.JPG,513d2dd4fdc9f03587002524,2.76860256869,3.29682747508,5.29718552022,3.96569499396,3.73256404294,4.90869969911,Chicago,41.870091,-87.717876
41.846420_-87.732680_513cc182fdc9f035870014a2_Chicago.JPG,513cc182fdc9f035870014a2,4.16987366111,6.23571382208,4.95008380704,5.3927603245,5.96046733931,4.57530546051,Chicago,41.846420,-87.732680
41.944291_-87.716331_513cc1fcfdc9f03587001515_Chicago.JPG,513cc1fcfdc9f03587001515,4.86954433445,4.52209845695,8.33333333333,3.8730787731,4.94710731366,3.30035039785,Chicago,41.944291,-87.716331
41.930017_-87.722039_513d37eafdc9f03587002c27_Chicago.JPG,513d37eafdc9f03587002c27,3.1501402262,6.22134940717,5.74691540329,6.47436515156,5.68475504489,7.12859502046,Chicago,41.930017,-87.722039
41.843980_-87.740735_513cc1cafdc9f035870014e7_Chicago.JPG,513cc1cafdc9f035870014e7,5.22199578032,2.7316267627,6.87089471807,4.72118246444,7.14147594984,5.49381195606,Chicago,41.843980,-87.740735
41.791662_-87.705682_513cc022fdc9f0358700134c_Chicago.JPG,513cc022fdc9f0358700134c,2.57987365122,3.40608353481,7.12859502046,3.40605152696,3.23490410161,5.41948576474,Chicago,41.791662,-87.705682
41.827645_-87.680091_513d3150fdc9f035870027d4_Chicago.JPG,513d3150fdc9f035870027d4,2.2479763324,3.16516477825,4.80403381991,7.12859502046,6.20346821687,5.38543535706,Chicago,41.827645,-87.680091
41.957765_-87.656219_513cc3aefdc9f035870016c4_Chicago.JPG,513cc3aefdc9f035870016c4,2.9662240791,3.22660179501,3.91837808956,5.98901971775,7.15136224625,5.17256904393,Chicago,41.957765,-87.656219
41.956775_-87.770734_513cbe16fdc9f03587001145_Chicago.JPG,513cbe16fdc9f03587001145,3.41682168109,4.1553823236,6.20346821687,5.21565320557,4.49120977933,6.21620761189,Chicago,41.956775,-87.770734
41.808439_-87.680670_513d3110fdc9f035870027a0_Chicago.JPG,513d3110fdc9f035870027a0,2.66253602305,2.7072635709,6.15094066452,6.22841654492,4.27474119804,5.74966604095,Chicago,41.808439,-87.680670
41.949449_-87.816928_513d3470fdc9f03587002a25_Chicago.JPG,513d3470fdc9f03587002a25,3.13126886203,4.25614636049,5.61068607533,4.71134995894,7.11100988223,3.86599138191,Chicago,41.949449,-87.816928
41.886109_-87.776473_513d2e3efdc9f03587002572_Chicago.JPG,513d2e3efdc9f03587002572,2.96515578198,3.2954179697,6.90318201326,5.36912535707,5.47487241354,4.4226496087,Chicago,41.886109,-87.776473
41.793162_-87.604083_513d3130fdc9f035870027b9_Chicago.JPG,513d3130fdc9f035870027b9,3.01773692657,3.24841807381,5.40937309019,5.13866576244,7.12859502046,3.57117326396,Chicago,41.793162,-87.604083
41.942530_-87.718705_513d3064fdc9f0358700271c_Chicago.JPG,513d3064fdc9f0358700271c,3.10565661848,4.2083989259,5.52458821836,4.44553230571,6.28374193958,3.63011626539,Chicago,41.942530,-87.718705
41.882948_-87.615712_513d3462fdc9f03587002a1a_Chicago.JPG,513d3462fdc9f03587002a1a,2.45813604517,3.15786473643,6.20346821687,4.04644127932,6.47436515156,4.41097564616,Chicago,41.882948,-87.615712
41.968183_-87.732961_513cbc6cfdc9f03587000fbc_Chicago.JPG,513cbc6cfdc9f03587000fbc,2.27180523501,2.87610188568,5.02871627926,5.82873074788,6.55497073755,5.10358447512,Chicago,41.968183,-87.732961
41.832038_-87.610947_513cc6f0fdc9f035870019cd_Chicago.JPG,513cc6f0fdc9f035870019cd,2.93007919256,3.13695062841,6.03937720309,6.47436515156,5.96727412251,4.17643261091,Chicago,41.832038,-87.610947
41.753356_-87.644101_513d2d48fdc9f035870024bf_Chicago.JPG,513d2d48fdc9f035870024bf,2.74868105446,6.47436515156,6.84645219089,7.12859502046,5.22020216147,5.13642722913,Chicago,41.753356,-87.644101
41.966436_-87.650042_513cc93afdc9f03587001bf1_Chicago.JPG,513cc93afdc9f03587001bf1,5.57226470309,3.33269226419,5.82366845636,4.88559697426,4.17278870001,5.91948718247,Chicago,41.966436,-87.650042
41.917106_-87.711876_513cc178fdc9f0358700149b_Chicago.JPG,513cc178fdc9f0358700149b,2.33820314141,4.1860031265,7.12859502046,4.59338130269,6.1234889086,4.03854671155,Chicago,41.917106,-87.711876
41.863392_-87.729987_513d3697fdc9f03587002bae_Chicago.JPG,513d3697fdc9f03587002bae,4.52475215461,3.49818376188,4.86034183479,5.42160932857,4.27500180327,4.33199125252,Chicago,41.863392,-87.729987
41.852759_-87.666004_513cbb38fdc9f03587000ea1_Chicago.JPG,513cbb38fdc9f03587000ea1,3.22966290524,2.67633039876,5.35797184381,8.33333333333,4.17196795639,4.24550652471,Chicago,41.852759,-87.666004
41.871448_-87.654219_513cb9cefdc9f03587000d51_Chicago.JPG,513cb9cefdc9f03587000d51,2.98380845634,4.36377575907,5.86164404384,6.23289941222,5.9707701263,4.9691005356,Chicago,41.871448,-87.654219
41.745392_-87.575864_513cc4c4fdc9f035870017ca_Chicago.JPG,513cc4c4fdc9f035870017ca,2.63861869223,3.6206076309,5.23692732338,3.5567591766,5.93081500563,4.97313594355,Chicago,41.745392,-87.575864
41.956583_-87.735628_513d385efdc9f03587002c53_Chicago.JPG,513d385efdc9f03587002c53,2.52852193878,3.09367674154,4.58020803625,5.30731357626,6.14454156542,5.0825733684,Chicago,41.956583,-87.735628
41.881682_-87.663697_513d3424fdc9f035870029ea_Chicago.JPG,513d3424fdc9f035870029ea,2.5956208259,4.90015731076,6.14650269148,5.20807095849,4.29048803211,5.69297562826,Chicago,41.881682,-87.663697
41.901446_-87.643780_513cc05efdc9f03587001384_Chicago.JPG,513cc05efdc9f03587001384,4.36769114663,3.11189093552,6.21620761189,4.54762307012,6.23892642818,5.13159597333,Chicago,41.901446,-87.643780
41.953976_-87.690853_513cbeb2fdc9f035870011dd_Chicago.JPG,513cbeb2fdc9f035870011dd,2.35566110878,3.22432540718,6.02382088944,7.28666796754,4.81556936164,6.47436515156,Chicago,41.953976,-87.690853
41.866487_-87.608045_513d30a0fdc9f03587002747_Chicago.JPG,513d30a0fdc9f03587002747,2.97444073194,4.41639110089,7.12859502046,5.77344959033,7.12859502046,5.94910059457,Chicago,41.866487,-87.608045
41.864984_-87.672702_513cbe38fdc9f03587001168_Chicago.JPG,513cbe38fdc9f03587001168,3.48447875404,4.89415887693,5.5673061297,5.84533286587,5.23307861143,4.64634221831,Chicago,41.864984,-87.672702
41.902955_-87.693041_513cbbd2fdc9f03587000f2e_Chicago.JPG,513cbbd2fdc9f03587000f2e,4.35033625309,3.393186577,4.50281300056,3.66695697805,5.85387227041,3.11508236263,Chicago,41.902955,-87.693041
41.791472_-87.592552_513cc104fdc9f0358700142c_Chicago.JPG,513cc104fdc9f0358700142c,4.98158879325,2.18019147333,4.52165072239,6.21620761189,4.72079578824,5.10497032556,Chicago,41.791472,-87.592552
41.898796_-87.657595_513cc4b6fdc9f035870017b9_Chicago.JPG,513cc4b6fdc9f035870017b9,4.43513837696,4.61960640336,6.20346821687,4.90199488232,5.27488199299,4.94189453664,Chicago,41.898796,-87.657595
41.765095_-87.637102_513d2f21fdc9f0358700261f_Chicago.JPG,513d2f21fdc9f0358700261f,3.96158578005,3.9714998498,4.76343808992,5.26462801838,6.2324095086,8.33333333333,Chicago,41.765095,-87.637102
41.918111_-87.796057_513cbea6fdc9f035870011d1_Chicago.JPG,513cbea6fdc9f035870011d1,5.10087606306,5.65530343135,7.11100988223,6.51251836572,6.56796640084,5.24683163337,Chicago,41.918111,-87.796057
41.831475_-87.704670_513d2fb6fdc9f0358700268e_Chicago.JPG,513d2fb6fdc9f0358700268e,3.13273964995,3.61399142106,8.33333333333,5.61646294479,4.64661871785,5.39840296064,Chicago,41.831475,-87.704670
41.887698_-87.731794_513cb742fdc9f03587000af5_Chicago.JPG,513cb742fdc9f03587000af5,4.70820044008,2.96398354945,6.11404089307,5.08150771003,4.9302869125,4.87360385597,Chicago,41.887698,-87.731794
41.754037_-87.660085_513cbbf6fdc9f03587000f4c_Chicago.JPG,513cbbf6fdc9f03587000f4c,2.84803240584,5.64129300855,5.83018191328,5.68978572188,5.13266861426,5.27946448305,Chicago,41.754037,-87.660085
41.771260_-87.795785_513cb7ccfdc9f03587000b6d_Chicago.JPG,513cb7ccfdc9f03587000b6d,3.52151701507,4.35549136689,4.68962921979,5.99398079854,8.33333333333,6.22134940717,Chicago,41.771260,-87.795785
41.950098_-87.721149_513d2e7afdc9f035870025a1_Chicago.JPG,513d2e7afdc9f035870025a1,2.2042352137,4.40428089584,5.86270778249,5.799032018,5.3520996929,4.85131811661,Chicago,41.950098,-87.721149
41.921839_-87.635494_513cc04cfdc9f03587001373_Chicago.JPG,513cc04cfdc9f03587001373,3.05494796967,4.86654392165,5.12990338971,5.7242111706,8.33333333333,7.12859502046,Chicago,41.921839,-87.635494
41.854609_-87.614734_513d3594fdc9f03587002af8_Chicago.JPG,513d3594fdc9f03587002af8,2.69575680208,5.38155098934,3.3080629658,5.26320890983,6.16763336923,4.5908513774,Chicago,41.854609,-87.614734
41.915314_-87.730267_513cb90efdc9f03587000c9f_Chicago.JPG,513cb90efdc9f03587000c9f,2.96058980776,2.61208868857,8.33333333333,5.2923867026,5.27488199299,4.06330176577,Chicago,41.915314,-87.730267
41.775734_-87.600947_513d3682fdc9f03587002ba6_Chicago.JPG,513d3682fdc9f03587002ba6,3.22975013401,6.04845637836,6.8169186165,5.01157948862,4.43449179148,4.2759577031,Chicago,41.775734,-87.600947
41.784076_-87.726048_513cb590fdc9f0358700095a_Chicago.JPG,513cb590fdc9f0358700095a,3.41773077959,3.54631909587,4.72351184772,4.05700459048,7.12859502046,4.03315477327,Chicago,41.784076,-87.726048
41.829846_-87.614044_513cc958fdc9f03587001c10_Chicago.JPG,513cc958fdc9f03587001c10,3.05308967225,3.48161091237,3.84491950078,4.23146789459,7.12859502046,5.41282382621,Chicago,41.829846,-87.614044
41.940489_-87.677019_513cb9fefdc9f03587000d7d_Chicago.JPG,513cb9fefdc9f03587000d7d,3.18629148563,4.90327687025,5.35305975794,4.60895169884,6.00156980333,5.47912507419,Chicago,41.940489,-87.677019
41.834738_-87.750831_513d3066fdc9f0358700271d_Chicago.JPG,513d3066fdc9f0358700271d,3.35605549882,2.7379575776,4.93816681072,4.01528752954,4.98349249429,4.7795824347,Chicago,41.834738,-87.750831
41.922295_-87.632264_513cc7b6fdc9f03587001a8a_Chicago.JPG,513cc7b6fdc9f03587001a8a,3.11295910076,3.99782621135,5.84027095151,5.94557067229,7.12859502046,5.14425475243,Chicago,41.922295,-87.632264
41.961913_-87.748793_513d30dafdc9f03587002776_Chicago.JPG,513d30dafdc9f03587002776,2.756317952,4.11030150525,5.78498968054,5.54045977112,4.16480114288,6.06362452454,Chicago,41.961913,-87.748793
41.947960_-87.745072_513cb8d8fdc9f03587000c6c_Chicago.JPG,513cb8d8fdc9f03587000c6c,4.91585238893,3.8110020587,4.01077014576,5.31456429964,5.41698041099,3.92393485199,Chicago,41.947960,-87.745072
41.908186_-87.645701_513d342cfdc9f035870029f1_Chicago.JPG,513d342cfdc9f035870029f1,4.2559090351,3.70390029682,4.38880012845,4.49845441263,7.16837551803,3.98705475611,Chicago,41.908186,-87.645701
41.747503_-87.643938_513cc42cfdc9f03587001737_Chicago.JPG,513cc42cfdc9f03587001737,2.67400129186,5.6759729518,5.23566880131,5.72368696277,3.19435124039,5.10365425788,Chicago,41.747503,-87.643938
41.917405_-87.806039_513cc558fdc9f03587001858_Chicago.JPG,513cc558fdc9f03587001858,2.22490962454,5.43808507868,5.32026186925,6.14715340137,7.12859502046,4.69455693108,Chicago,41.917405,-87.806039
41.865458_-87.774778_513cca12fdc9f03587001cb5_Chicago.JPG,513cca12fdc9f03587001cb5,3.99725869601,3.59733528563,6.47436515156,5.47624263668,3.85770952805,4.68355686249,Chicago,41.865458,-87.774778
41.876015_-87.737817_513d2dd9fdc9f03587002527_Chicago.JPG,513d2dd9fdc9f03587002527,5.65876674195,2.77617313928,4.32873911837,5.13622344061,3.56758521336,4.78236361079,Chicago,41.876015,-87.737817
41.884166_-87.698812_513cc0f8fdc9f03587001420_Chicago.JPG,513cc0f8fdc9f03587001420,5.58328089106,4.16914102934,5.8713298259,5.20854235689,5.0442856533,5.46357935689,Chicago,41.884166,-87.698812
41.950344_-87.721378_513cb5e4fdc9f035870009b0_Chicago.JPG,513cb5e4fdc9f035870009b0,2.67488561611,3.50891956502,6.09401029293,4.72515898909,5.9240523742,7.40387683237,Chicago,41.950344,-87.721378
41.801799_-87.634687_513d3538fdc9f03587002aae_Chicago.JPG,513d3538fdc9f03587002aae,1.92842104105,3.12862670192,5.01913922998,4.2701862039,6.28473519438,4.04325964316,Chicago,41.801799,-87.634687
41.788662_-87.671738_513cb53afdc9f03587000905_Chicago.JPG,513cb53afdc9f03587000905,4.06163716817,3.04733670911,5.85870948468,3.52264986109,5.35238886792,5.28419280027,Chicago,41.788662,-87.671738
41.816221_-87.732718_513d3739fdc9f03587002be6_Chicago.JPG,513d3739fdc9f03587002be6,2.2664840353,6.82651112594,4.1642538138,5.90917409822,6.53406091777,3.89750906577,Chicago,41.816221,-87.732718
41.957564_-87.704846_513d38c4fdc9f03587002c7a_Chicago.JPG,513d38c4fdc9f03587002c7a,3.56998538585,3.16577606415,3.19551624831,3.22085298172,5.25375670975,4.6757948496,Chicago,41.957564,-87.704846
41.849139_-87.765944_513cc326fdc9f03587001635_Chicago.JPG,513cc326fdc9f03587001635,4.28661007238,3.73186338512,5.81544792087,4.54216124337,6.16763336923,4.23156103133,Chicago,41.849139,-87.765944
41.847215_-87.772739_513cb928fdc9f03587000cb6_Chicago.JPG,513cb928fdc9f03587000cb6,5.07816155635,4.49724271106,5.21065956458,6.00057123677,7.11100988223,3.97110833478,Chicago,41.847215,-87.772739
41.850757_-87.705211_513cc2c6fdc9f035870015da_Chicago.JPG,513cc2c6fdc9f035870015da,2.57165270275,3.49664496818,5.59733347577,4.77734169729,5.18643759758,4.46137591745,Chicago,41.850757,-87.705211
41.832898_-87.622492_513d354cfdc9f03587002abd_Chicago.JPG,513d354cfdc9f03587002abd,3.56666532107,6.14345575997,5.52337926015,5.12360464611,5.56628051471,6.47436515156,Chicago,41.832898,-87.622492
41.802415_-87.692811_513cc29cfdc9f035870015b1_Chicago.JPG,513cc29cfdc9f035870015b1,2.88226876114,3.82428097125,4.17557328518,5.62812281031,5.99272223708,5.78546517337,Chicago,41.802415,-87.692811
41.889898_-87.721483_513cbf00fdc9f03587001222_Chicago.JPG,513cbf00fdc9f03587001222,2.6932424032,3.45872959118,5.47472036036,5.92573827718,7.12859502046,5.94230058348,Chicago,41.889898,-87.721483
41.874913_-87.695287_513d2e2afdc9f03587002560_Chicago.JPG,513d2e2afdc9f03587002560,3.19831538239,3.06792674069,7.12859502046,4.83309502844,5.70524983289,4.4761689995,Chicago,41.874913,-87.695287
41.963364_-87.778325_513cc7d6fdc9f03587001aa3_Chicago.JPG,513cc7d6fdc9f03587001aa3,3.63998068295,4.66155772843,5.66529681593,5.95009383554,7.15136224625,5.43169266547,Chicago,41.963364,-87.778325
41.886845_-87.671573_513cc100fdc9f03587001428_Chicago.JPG,513cc100fdc9f03587001428,2.6707592587,3.11575920011,5.68052850247,4.8166215091,7.12859502046,5.28758796117,Chicago,41.886845,-87.671573
41.853259_-87.666068_513cbb68fdc9f03587000ed0_Chicago.JPG,513cbb68fdc9f03587000ed0,5.4704226628,3.51376311622,5.49724144006,3.79129321934,4.11040729006,5.10670841619,Chicago,41.853259,-87.666068
41.857654_-87.726148_513cc9c0fdc9f03587001c6e_Chicago.JPG,513cc9c0fdc9f03587001c6e,2.36971622924,3.64244345314,5.82321920036,5.46743283389,4.81482064841,5.00220380379,Chicago,41.857654,-87.726148
41.857742_-87.669638_513d2e90fdc9f035870025b2_Chicago.JPG,513d2e90fdc9f035870025b2,5.66676854594,5.73130776577,5.96289274471,5.46295730711,4.63356697399,4.04786581744,Chicago,41.857742,-87.669638
41.800122_-87.757021_513cb7a2fdc9f03587000b49_Chicago.JPG,513cb7a2fdc9f03587000b49,5.85870948468,4.65640424325,5.96896628176,6.01430510806,4.69212743017,5.0434617711,Chicago,41.800122,-87.757021
41.805888_-87.583795_513d2d0cfdc9f0358700248f_Chicago.JPG,513d2d0cfdc9f0358700248f,3.49311888216,3.29430951857,5.50303860121,5.3615213588,5.19676870801,4.62964843389,Chicago,41.805888,-87.583795
41.904072_-87.754548_513d30fefdc9f03587002791_Chicago.JPG,513d30fefdc9f03587002791,3.04922088278,3.86987205206,6.20513618242,8.33333333333,6.32373238273,3.31144022045,Chicago,41.904072,-87.754548
41.959186_-87.740890_513d38ecfdc9f03587002c8a_Chicago.JPG,513d38ecfdc9f03587002c8a,3.87471199778,3.03832602725,7.12859502046,6.6201468172,5.44940925533,5.5026892225,Chicago,41.959186,-87.740890
41.888269_-87.656876_513d2de7fdc9f03587002533_Chicago.JPG,513d2de7fdc9f03587002533,4.92502994645,6.21620761189,6.36933282442,4.40016684611,6.0284406763,4.65326919607,Chicago,41.888269,-87.656876
41.857560_-87.645987_513d2d4efdc9f035870024c5_Chicago.JPG,513d2d4efdc9f035870024c5,5.50147139923,3.36528298212,7.12859502046,5.15334756293,4.33108127296,3.9447601746,Chicago,41.857560,-87.645987
41.928643_-87.687685_513cbfe6fdc9f03587001312_Chicago.JPG,513cbfe6fdc9f03587001312,3.08143842969,3.38694347672,3.81238727685,6.31349336834,7.09197840615,5.37633066577,Chicago,41.928643,-87.687685
41.919799_-87.668270_513d3578fdc9f03587002ae3_Chicago.JPG,513d3578fdc9f03587002ae3,4.28020779521,2.52827384965,6.40459428019,5.44847206778,6.47436515156,4.88645526173,Chicago,41.919799,-87.668270
41.920924_-87.711968_513d322cfdc9f03587002880_Chicago.JPG,513d322cfdc9f03587002880,5.54938201523,3.13558722414,5.42574001561,5.05466646703,7.12859502046,5.25055228498,Chicago,41.920924,-87.711968
41.884585_-87.684047_513d33adfdc9f03587002986_Chicago.JPG,513d33adfdc9f03587002986,5.4760256184,4.206201371,4.50056831276,6.60837116567,5.9240774542,4.01507054562,Chicago,41.884585,-87.684047
41.936306_-87.768836_513cb904fdc9f03587000c97_Chicago.JPG,513cb904fdc9f03587000c97,4.10869257543,4.92911179053,5.47347445525,4.89201191313,6.16763336923,5.74536569239,Chicago,41.936306,-87.768836
41.938070_-87.700221_513cb77cfdc9f03587000b27_Chicago.JPG,513cb77cfdc9f03587000b27,4.3418079722,4.78420591706,6.75501373345,6.53741090799,5.79202033974,6.51649109453,Chicago,41.938070,-87.700221
41.765550_-87.712859_513cc0e0fdc9f03587001407_Chicago.JPG,513cc0e0fdc9f03587001407,3.27626977603,2.15577383755,5.61068607533,4.13899991199,5.5528610038,5.11534180672,Chicago,41.765550,-87.712859
41.945236_-87.694093_513d3552fdc9f03587002ac2_Chicago.JPG,513d3552fdc9f03587002ac2,3.7971313495,3.6415674894,5.18539365656,8.33333333333,8.33333333333,5.0348630751,Chicago,41.945236,-87.694093
41.880443_-87.811179_513cbce0fdc9f03587001021_Chicago.JPG,513cbce0fdc9f03587001021,3.08963971215,4.81815786748,7.17688396732,4.76683025643,5.24464420233,5.23592525658,Chicago,41.880443,-87.811179
41.845575_-87.694871_513cb7b0fdc9f03587000b56_Chicago.JPG,513cb7b0fdc9f03587000b56,4.42602071472,3.74656949469,4.35052106048,6.54983380911,7.11100988223,6.26891397505,Chicago,41.845575,-87.694871
41.903755_-87.679694_513d2eb2fdc9f035870025cf_Chicago.JPG,513d2eb2fdc9f035870025cf,2.99680663989,4.12095565863,6.27822440067,4.26184495785,4.96662207805,5.43981405578,Chicago,41.903755,-87.679694
41.875164_-87.810644_513d362cfdc9f03587002b6c_Chicago.JPG,513d362cfdc9f03587002b6c,3.14883783303,4.11574473803,6.06087074394,5.04554216281,5.32046753468,5.8050031251,Chicago,41.875164,-87.810644
41.911863_-87.712391_513d37befdc9f03587002c14_Chicago.JPG,513d37befdc9f03587002c14,2.10930118184,3.98694914061,8.33333333333,5.05315199343,6.40459428019,5.5966423474,Chicago,41.911863,-87.712391
41.859017_-87.710985_513cb89cfdc9f03587000c33_Chicago.JPG,513cb89cfdc9f03587000c33,4.26148131353,5.8713298259,6.44503195386,4.98359969714,5.3511575402,4.50764095626,Chicago,41.859017,-87.710985
41.745238_-87.707143_513cb988fdc9f03587000d11_Chicago.JPG,513cb988fdc9f03587000d11,2.59677469382,4.02455125818,5.84806430176,6.67673678198,5.80615430268,4.00758540381,Chicago,41.745238,-87.707143
41.933342_-87.772382_513cc514fdc9f03587001817_Chicago.JPG,513cc514fdc9f03587001817,3.50143811818,2.55203297909,4.63407580279,3.87561327127,4.92506650504,3.33998277045,Chicago,41.933342,-87.772382
41.881640_-87.788647_513cbc56fdc9f03587000fa7_Chicago.JPG,513cbc56fdc9f03587000fa7,5.10644866215,2.38483562146,6.464014115,4.51451945022,5.40357952773,6.06567890555,Chicago,41.881640,-87.788647
41.928741_-87.694256_513cba86fdc9f03587000df5_Chicago.JPG,513cba86fdc9f03587000df5,2.79725485394,2.90699534189,4.82036172796,5.71422176231,5.8713298259,4.88718185015,Chicago,41.928741,-87.694256
41.914380_-87.650813_513d3432fdc9f035870029f6_Chicago.JPG,513d3432fdc9f035870029f6,2.1999407928,4.96991053802,6.47436515156,5.79280332732,5.28572412718,5.30651798262,Chicago,41.914380,-87.650813
41.776541_-87.615549_513cc59afdc9f03587001893_Chicago.JPG,513cc59afdc9f03587001893,3.05559509666,3.05916711458,7.19716773657,3.22949923814,6.47436515156,5.4154731286,Chicago,41.776541,-87.615549
41.746790_-87.657110_513cc986fdc9f03587001c38_Chicago.JPG,513cc986fdc9f03587001c38,3.30452054761,3.30726166153,3.93475871199,4.49797382878,4.70081112551,3.89754780413,Chicago,41.746790,-87.657110
41.851988_-87.689258_513cbab4fdc9f03587000e1d_Chicago.JPG,513cbab4fdc9f03587000e1d,3.01960402788,3.94700550358,8.33333333333,5.41547542819,6.34930312877,5.28576032829,Chicago,41.851988,-87.689258
41.821528_-87.779648_513cc27cfdc9f03587001594_Chicago.JPG,513cc27cfdc9f03587001594,2.5126192968,3.01879365002,5.83934366828,5.5663642805,4.64896405872,5.5026892225,Chicago,41.821528,-87.779648
41.852589_-87.631037_513d381dfdc9f03587002c39_Chicago.JPG,513d381dfdc9f03587002c39,3.42044653128,4.4982899233,4.62032209187,5.23405651501,4.56706598303,6.47436515156,Chicago,41.852589,-87.631037
41.951143_-87.722635_513cb954fdc9f03587000cdc_Chicago.JPG,513cb954fdc9f03587000cdc,1.93207986576,5.10998964878,4.20517141758,5.7839290115,5.42803116512,5.13592114229,Chicago,41.951143,-87.722635
41.832992_-87.775647_513d3472fdc9f03587002a26_Chicago.JPG,513d3472fdc9f03587002a26,3.3991039384,4.25869490728,7.12859502046,8.33333333333,5.9071239866,3.42857155199,Chicago,41.832992,-87.775647
41.760722_-87.650358_513d36c2fdc9f03587002bbc_Chicago.JPG,513d36c2fdc9f03587002bbc,3.28911182491,3.98783121139,4.55818563981,6.14574361399,4.89561750556,6.89678099845,Chicago,41.760722,-87.650358
41.873176_-87.659891_513cbbcffdc9f03587000f29_Chicago.JPG,513cbbcffdc9f03587000f29,3.4344012055,4.36229003833,8.33333333333,5.60797969497,6.05204895243,4.18189792143,Chicago,41.873176,-87.659891
41.890196_-87.750524_513d337afdc9f03587002971_Chicago.JPG,513d337afdc9f03587002971,3.07977908933,4.21486149999,7.12859502046,5.37044486166,5.10160063595,4.49416146457,Chicago,41.890196,-87.750524
41.829534_-87.696023_513d31f6fdc9f03587002854_Chicago.JPG,513d31f6fdc9f03587002854,3.40297581726,2.70974876389,6.70599022636,4.97269584869,7.12859502046,5.00685365841,Chicago,41.829534,-87.696023
41.962120_-87.689925_513cc8dafdc9f03587001b9a_Chicago.JPG,513cc8dafdc9f03587001b9a,2.13892552203,3.92890113332,4.76272631284,5.19413994796,4.62140013393,5.10283806945,Chicago,41.962120,-87.689925
41.833400_-87.751925_513d379cfdc9f03587002c08_Chicago.JPG,513d379cfdc9f03587002c08,4.4979014325,4.26191423907,4.79582248922,4.60762634351,5.9071239866,5.69959871359,Chicago,41.833400,-87.751925
41.873826_-87.735415_513cc01afdc9f03587001343_Chicago.JPG,513cc01afdc9f03587001343,3.18163539818,3.76373194628,5.9707701263,5.44835635788,8.33333333333,6.39577535947,Chicago,41.873826,-87.735415
41.938281_-87.696555_513d2f1dfdc9f0358700261b_Chicago.JPG,513d2f1dfdc9f0358700261b,2.42524080169,5.39826346387,4.93215685131,8.33333333333,5.25502865933,6.23363050913,Chicago,41.938281,-87.696555
41.795224_-87.710895_513d31d6fdc9f0358700283a_Chicago.JPG,513d31d6fdc9f0358700283a,2.97403723303,3.74370962786,4.76048214983,4.58368156391,6.47436515156,4.94529651684,Chicago,41.795224,-87.710895
41.912047_-87.651151_513cc5f4fdc9f035870018e2_Chicago.JPG,513cc5f4fdc9f035870018e2,2.87386697046,2.70312581529,4.59651531968,4.85962810566,5.82099245603,5.15200716254,Chicago,41.912047,-87.651151
41.926242_-87.744882_513cc40afdc9f0358700171a_Chicago.JPG,513cc40afdc9f0358700171a,2.81083949339,4.43547275752,5.06155311002,4.57316294121,5.65153068262,5.35654807289,Chicago,41.926242,-87.744882
41.796900_-87.800411_513cc1f8fdc9f03587001511_Chicago.JPG,513cc1f8fdc9f03587001511,2.45399819938,6.47436515156,7.12859502046,4.00642219403,7.12859502046,6.16775611521,Chicago,41.796900,-87.800411
41.809982_-87.764734_513d364cfdc9f03587002b83_Chicago.JPG,513d364cfdc9f03587002b83,3.03023476875,2.76290001116,4.92859579509,3.56709215615,5.8861607112,5.53685157244,Chicago,41.809982,-87.764734
41.870467_-87.806525_513d3464fdc9f03587002a1b_Chicago.JPG,513d3464fdc9f03587002a1b,2.82447110428,3.68154985442,4.87265673005,7.12859502046,4.97443218718,4.87178479332,Chicago,41.870467,-87.806525
41.944800_-87.766710_513cc394fdc9f035870016a5_Chicago.JPG,513cc394fdc9f035870016a5,3.04240260974,4.41039924584,4.83569658377,4.56964765964,5.00778014857,5.02163814133,Chicago,41.944800,-87.766710
41.909855_-87.798469_513cba2efdc9f03587000da8_Chicago.JPG,513cba2efdc9f03587000da8,2.58210147747,3.39536083373,5.41176549882,5.85870948468,5.53345378608,3.86166358656,Chicago,41.909855,-87.798469
41.805826_-87.681914_513cc53afdc9f0358700183c_Chicago.JPG,513cc53afdc9f0358700183c,3.90255270559,4.84490453336,5.89356336163,3.89615836342,8.33333333333,3.47655885733,Chicago,41.805826,-87.681914
41.799610_-87.787993_513d3372fdc9f0358700296d_Chicago.JPG,513d3372fdc9f0358700296d,3.62252192623,3.70986156565,5.16475959305,7.12859502046,5.69424379784,4.46527445982,Chicago,41.799610,-87.787993
41.778474_-87.593016_513cc0b8fdc9f035870013e1_Chicago.JPG,513cc0b8fdc9f035870013e1,6.47436515156,2.63266198149,6.87089471807,4.44250891336,4.42529226622,5.29889568229,Chicago,41.778474,-87.593016
41.928910_-87.659578_513cc16cfdc9f03587001490_Chicago.JPG,513cc16cfdc9f03587001490,2.3926261976,4.23288933197,7.12859502046,4.51706316631,5.8713298259,4.7103486487,Chicago,41.928910,-87.659578
41.762390_-87.721111_513cb67cfdc9f03587000a43_Chicago.JPG,513cb67cfdc9f03587000a43,4.51938759085,6.47436515156,6.50502819659,6.47436515156,6.45577409612,4.49740246146,Chicago,41.762390,-87.721111
41.946502_-87.736015_513d385afdc9f03587002c51_Chicago.JPG,513d385afdc9f03587002c51,4.28225688239,2.76864336212,5.42559145922,3.6994059788,3.97836581655,4.75094511289,Chicago,41.946502,-87.736015
41.843343_-87.786761_513d2ce6fdc9f03587002478_Chicago.JPG,513d2ce6fdc9f03587002478,3.16930481258,4.24246070108,5.10087606306,4.00043135381,6.45620209737,3.9683553363,Chicago,41.843343,-87.786761
41.761741_-87.716179_513cc9befdc9f03587001c6c_Chicago.JPG,513cc9befdc9f03587001c6c,4.34565290393,3.12658669057,5.78798128552,4.60449194929,5.50387882421,4.88086805731,Chicago,41.761741,-87.716179
41.794254_-87.780529_513cbe7cfdc9f035870011a8_Chicago.JPG,513cbe7cfdc9f035870011a8,3.74428733191,3.84186049193,5.47912507419,5.62313416714,7.12859502046,3.8427170859,Chicago,41.794254,-87.780529
41.841011_-87.660696_513cbdfcfdc9f0358700112b_Chicago.JPG,513cbdfcfdc9f0358700112b,2.53265355295,3.79254094414,6.73419053702,5.74548875765,5.07110822519,3.45891330382,Chicago,41.841011,-87.660696
41.899739_-87.664964_513d368efdc9f03587002bab_Chicago.JPG,513d368efdc9f03587002bab,1.86306777753,3.93530162791,5.84858851387,7.12859502046,6.02048416127,5.17435400467,Chicago,41.899739,-87.664964
41.793166_-87.603794_513d307efdc9f0358700272e_Chicago.JPG,513d307efdc9f0358700272e,2.62795255883,3.88722370133,6.40459428019,4.15892721135,5.92127556338,3.68695397871,Chicago,41.793166,-87.603794
41.964406_-87.646331_513cc2a4fdc9f035870015b9_Chicago.JPG,513cc2a4fdc9f035870015b9,2.82296665311,2.84999296005,6.08411332888,4.74832216548,6.20346821687,4.52456841442,Chicago,41.964406,-87.646331
41.917927_-87.773932_513d374efdc9f03587002bef_Chicago.JPG,513d374efdc9f03587002bef,3.29872500751,4.05927281983,6.16763336923,6.00699622861,3.53967733124,4.15100418399,Chicago,41.917927,-87.773932
41.816964_-87.722545_513d373efdc9f03587002be8_Chicago.JPG,513d373efdc9f03587002be8,4.62750251929,4.16691038439,5.37125874775,5.28750948658,5.28325302493,3.79693359003,Chicago,41.816964,-87.722545
41.877634_-87.679774_513cbe1efdc9f0358700114c_Chicago.JPG,513cbe1efdc9f0358700114c,2.2618973054,3.36993041291,5.57452753127,5.72453737004,6.21669280225,4.4866351422,Chicago,41.877634,-87.679774
41.962023_-87.745757_513cc732fdc9f03587001a10_Chicago.JPG,513cc732fdc9f03587001a10,3.41050103482,3.2923249085,6.01763166106,5.77691964051,6.47436515156,4.57240136342,Chicago,41.962023,-87.745757
41.837450_-87.693075_513cb758fdc9f03587000b06_Chicago.JPG,513cb758fdc9f03587000b06,2.55120203077,3.66461441193,5.44633002854,7.12859502046,5.19757340876,5.66529681593,Chicago,41.837450,-87.693075
41.795714_-87.785567_513cb6f6fdc9f03587000ab1_Chicago.JPG,513cb6f6fdc9f03587000ab1,3.07488446509,3.13051676187,5.6326632705,6.19751160705,8.33333333333,5.78252417498,Chicago,41.795714,-87.785567
41.786071_-87.810996_513cbe43fdc9f03587001173_Chicago.JPG,513cbe43fdc9f03587001173,3.18201407117,2.76681755246,7.12859502046,5.89025131076,6.40459428019,5.58153600182,Chicago,41.786071,-87.810996
41.851902_-87.696319_513cc99cfdc9f03587001c4a_Chicago.JPG,513cc99cfdc9f03587001c4a,3.27068802287,3.86177927471,5.6169168369,5.80010829095,5.04767561859,5.95173484607,Chicago,41.851902,-87.696319
41.765757_-87.609225_513d3584fdc9f03587002aec_Chicago.JPG,513d3584fdc9f03587002aec,5.09199439244,4.75638530162,5.26753061766,4.83704048039,6.10477786728,4.20520513001,Chicago,41.765757,-87.609225
41.835339_-87.665745_513d3474fdc9f03587002a27_Chicago.JPG,513d3474fdc9f03587002a27,3.00003463629,3.6297835002,5.79952320185,8.33333333333,5.31998921003,4.67212648903,Chicago,41.835339,-87.665745
41.774920_-87.730461_513d36c8fdc9f03587002bbd_Chicago.JPG,513d36c8fdc9f03587002bbd,3.03366833322,3.70540804189,8.33333333333,4.29719697256,5.98802564588,4.64366604583,Chicago,41.774920,-87.730461
41.887692_-87.656375_513cbaeafdc9f03587000e55_Chicago.JPG,513cbaeafdc9f03587000e55,4.80249930788,3.5812954554,6.45783385294,4.57811022895,7.12859502046,4.67548982218,Chicago,41.887692,-87.656375
41.827195_-87.639139_513cb8f4fdc9f03587000c88_Chicago.JPG,513cb8f4fdc9f03587000c88,5.03793093754,5.64307718088,5.0692085245,6.63915005071,7.12859502046,4.43229801012,Chicago,41.827195,-87.639139
41.909790_-87.780131_513cb686fdc9f03587000a4c_Chicago.JPG,513cb686fdc9f03587000a4c,4.23430299791,5.79478161595,5.59437589241,5.4380442922,7.04731523439,5.00323348704,Chicago,41.909790,-87.780131
41.911387_-87.751922_513cb946fdc9f03587000ccf_Chicago.JPG,513cb946fdc9f03587000ccf,4.46363510224,5.39248392033,3.37440566621,4.33980210587,4.65766864226,5.75482825213,Chicago,41.911387,-87.751922
41.872264_-87.649777_513d2f2afdc9f03587002624_Chicago.JPG,513d2f2afdc9f03587002624,4.24766675351,2.7784116302,6.40459428019,6.00700884864,7.12859502046,5.89421541843,Chicago,41.872264,-87.649777
41.897080_-87.731848_513cb774fdc9f03587000b1f_Chicago.JPG,513cb774fdc9f03587000b1f,2.5543763672,5.6271012675,8.33333333333,6.40459428019,5.47022461572,6.50141239638,Chicago,41.897080,-87.731848
41.805528_-87.634433_513cbf6efdc9f03587001293_Chicago.JPG,513cbf6efdc9f03587001293,2.75873331564,3.94022770519,7.29036617914,3.97458111788,5.48890881023,5.1364675531,Chicago,41.805528,-87.634433
41.914286_-87.747076_513cc5d4fdc9f035870018c9_Chicago.JPG,513cc5d4fdc9f035870018c9,3.40005219496,4.13913282708,4.17523879021,5.03199923771,5.79844037544,4.92006744521,Chicago,41.914286,-87.747076
41.876365_-87.742672_513cc228fdc9f0358700153e_Chicago.JPG,513cc228fdc9f0358700153e,4.04932245343,5.45244608294,5.61068607533,5.48561807109,6.03022774273,6.60116157199,Chicago,41.876365,-87.742672
41.743818_-87.677651_513cbbc8fdc9f03587000f23_Chicago.JPG,513cbbc8fdc9f03587000f23,3.75118379901,4.76558955686,7.12859502046,6.40459428019,8.33333333333,5.05572992377,Chicago,41.743818,-87.677651
41.900894_-87.711585_513cc5cafdc9f035870018c1_Chicago.JPG,513cc5cafdc9f035870018c1,2.89325832519,3.1997632217,4.78076533902,5.00888502549,6.43209783018,3.8974555192,Chicago,41.900894,-87.711585
41.932395_-87.746565_513cb8d4fdc9f03587000c6a_Chicago.JPG,513cb8d4fdc9f03587000c6a,3.24584518745,5.50603305697,7.12859502046,6.20346821687,8.33333333333,4.84494316465,Chicago,41.932395,-87.746565
41.794535_-87.631547_513cba70fdc9f03587000de4_Chicago.JPG,513cba70fdc9f03587000de4,6.47436515156,4.19882231119,4.94660972151,4.16900395458,4.97810989952,5.27560274945,Chicago,41.794535,-87.631547
41.909248_-87.688407_513cbd50fdc9f0358700108c_Chicago.JPG,513cbd50fdc9f0358700108c,4.00079156128,4.60923084144,3.92505947957,6.84051192527,4.73261842522,4.20269312877,Chicago,41.909248,-87.688407
41.788343_-87.686710_513d308cfdc9f0358700273a_Chicago.JPG,513d308cfdc9f0358700273a,2.80233744133,3.0872540846,5.96433210878,5.69907809796,4.95992054689,4.18774488589,Chicago,41.788343,-87.686710
41.888652_-87.749551_513d389afdc9f03587002c69_Chicago.JPG,513d389afdc9f03587002c69,3.62937992368,2.32676732826,5.20884321475,5.45396228709,6.81224771061,3.83332541533,Chicago,41.888652,-87.749551
41.862866_-87.713844_513cbef3fdc9f03587001219_Chicago.JPG,513cbef3fdc9f03587001219,2.56200291419,2.58133113303,5.91754411697,6.21620761189,6.20346821687,5.47733232009,Chicago,41.862866,-87.713844
41.788944_-87.584807_513cbea8fdc9f035870011d4_Chicago.JPG,513cbea8fdc9f035870011d4,2.92995281896,3.89128461642,5.17959365521,5.40092340683,4.58293897748,5.31537474135,Chicago,41.788944,-87.584807
41.861199_-87.807723_513cb846fdc9f03587000bdc_Chicago.JPG,513cb846fdc9f03587000bdc,2.3396440334,4.21120238811,6.87089471807,6.47436515156,6.87778281306,4.66911836685,Chicago,41.861199,-87.807723
41.938112_-87.652229_513cc80afdc9f03587001ad4_Chicago.JPG,513cc80afdc9f03587001ad4,1.84741814087,3.23091200069,5.41423126093,6.16763336923,5.99372981996,5.18268311751,Chicago,41.938112,-87.652229
41.897055_-87.765459_513cbbe2fdc9f03587000f39_Chicago.JPG,513cbbe2fdc9f03587000f39,5.71742151127,5.59129113947,6.86318451631,8.33333333333,4.08913955778,3.35396644888,Chicago,41.897055,-87.765459
41.917387_-87.640011_513cb8a2fdc9f03587000c3b_Chicago.JPG,513cb8a2fdc9f03587000c3b,5.81544792087,6.47436515156,4.97156751582,4.87460699083,4.2200964758,5.30771139067,Chicago,41.917387,-87.640011
41.814007_-87.668922_513cbcdafdc9f0358700101f_Chicago.JPG,513cbcdafdc9f0358700101f,2.26412420952,3.58178344053,6.10391651647,5.54428542261,5.19793550281,3.94449345464,Chicago,41.814007,-87.668922
41.853128_-87.762734_513d3566fdc9f03587002ad1_Chicago.JPG,513d3566fdc9f03587002ad1,2.17689639943,3.66369856085,7.15136224625,4.66989519673,4.46471061358,4.21310252414,Chicago,41.853128,-87.762734
41.952301_-87.680512_513cb57afdc9f03587000943_Chicago.JPG,513cb57afdc9f03587000943,2.64113615484,6.21620761189,5.00741801412,3.84037800418,5.29158259652,3.76397064878,Chicago,41.952301,-87.680512
41.937577_-87.702671_513d2e24fdc9f0358700255c_Chicago.JPG,513d2e24fdc9f0358700255c,2.6051031305,4.15470893707,4.30289275496,4.96950526443,3.77863099846,3.72665183772,Chicago,41.937577,-87.702671
41.803678_-87.801931_513cc148fdc9f0358700146c_Chicago.JPG,513cc148fdc9f0358700146c,3.88611400757,3.7642835485,5.79216861984,5.69970276699,6.08444807581,5.32529745703,Chicago,41.803678,-87.801931
41.928532_-87.807623_513d2fc8fdc9f0358700269d_Chicago.JPG,513d2fc8fdc9f0358700269d,3.25469037937,2.6778793566,7.16983762413,5.08066589833,7.12859502046,5.99163981609,Chicago,41.928532,-87.807623
41.887737_-87.672797_513cc73cfdc9f03587001a18_Chicago.JPG,513cc73cfdc9f03587001a18,6.21620761189,4.75596342862,5.6682637606,4.56078040317,4.97878524366,5.37749659342,Chicago,41.887737,-87.672797
41.747247_-87.734026_513cc046fdc9f0358700136d_Chicago.JPG,513cc046fdc9f0358700136d,2.61277714379,3.75788190868,6.20346821687,7.15136224625,4.28220677006,4.89982355122,Chicago,41.747247,-87.734026
41.925305_-87.657652_513d3880fdc9f03587002c5d_Chicago.JPG,513d3880fdc9f03587002c5d,3.78400773487,3.3196585206,5.85870948468,6.46809426202,6.21087162488,3.85153107282,Chicago,41.925305,-87.657652
41.852634_-87.798575_513d3206fdc9f0358700285f_Chicago.JPG,513d3206fdc9f0358700285f,1.94640513926,3.48762008302,3.91920025002,6.47436515156,5.37360991937,5.1437006474,Chicago,41.852634,-87.798575
41.759219_-87.806216_513d30eafdc9f03587002780_Chicago.JPG,513d30eafdc9f03587002780,3.29661674417,3.57596510808,7.12859502046,7.12859502046,5.9508399007,3.79056697857,Chicago,41.759219,-87.806216
41.808650_-87.624435_513d2f04fdc9f0358700260b_Chicago.JPG,513d2f04fdc9f0358700260b,6.47436515156,3.6731706798,4.13908615128,5.22155622925,7.12859502046,4.92668859799,Chicago,41.808650,-87.624435
41.878295_-87.623844_513d2cd4fdc9f03587002467_Chicago.JPG,513d2cd4fdc9f03587002467,4.04509193089,3.52821002064,5.53651075477,4.64294617532,4.83090573609,5.26615707963,Chicago,41.878295,-87.623844
41.783589_-87.702045_513d347efdc9f03587002a2e_Chicago.JPG,513d347efdc9f03587002a2e,3.36114503404,3.18915830311,5.24631199807,6.23072427222,5.81160295929,5.32023269981,Chicago,41.783589,-87.702045
41.905982_-87.624646_513cb8defdc9f03587000c73_Chicago.JPG,513cb8defdc9f03587000c73,2.512318524,3.34425315933,4.14386130713,4.56585023348,6.20683496442,5.01030115156,Chicago,41.905982,-87.624646
41.858435_-87.701219_513cc872fdc9f03587001b37_Chicago.JPG,513cc872fdc9f03587001b37,3.45074366342,6.21620761189,4.58521004904,5.00991431485,4.25627340573,5.65426857626,Chicago,41.858435,-87.701219
41.816956_-87.618362_513d3708fdc9f03587002bd3_Chicago.JPG,513d3708fdc9f03587002bd3,5.36783220872,4.1276236653,5.66529681593,6.94007232966,5.09736412454,6.01023007095,Chicago,41.816956,-87.618362
41.753746_-87.683575_513d2fbafdc9f03587002692_Chicago.JPG,513d2fbafdc9f03587002692,4.45026824038,4.46876588705,5.16131831897,4.70591310684,5.85746700928,4.29056020738,Chicago,41.753746,-87.683575
41.784553_-87.786414_513cc1ccfdc9f035870014e8_Chicago.JPG,513cc1ccfdc9f035870014e8,3.41198377292,3.18580638548,6.24094625094,4.45491934459,5.36458881609,5.05249761394,Chicago,41.784553,-87.786414
41.846982_-87.724923_513cbd4cfdc9f03587001087_Chicago.JPG,513cbd4cfdc9f03587001087,2.3481115509,5.58931609813,6.47436515156,4.30714682955,5.39831316584,5.53615570632,Chicago,41.846982,-87.724923
41.780622_-87.573169_513cc694fdc9f03587001974_Chicago.JPG,513cc694fdc9f03587001974,4.13259626835,2.47135731154,5.65878101215,7.12859502046,6.40459428019,5.02101128363,Chicago,41.780622,-87.573169
41.865839_-87.642125_513cc9aefdc9f03587001c5a_Chicago.JPG,513cc9aefdc9f03587001c5a,6.04845637836,2.48120570702,4.70841495039,5.36483085905,4.99902666889,4.42777304445,Chicago,41.865839,-87.642125
41.755067_-87.728534_513cbcfcfdc9f03587001038_Chicago.JPG,513cbcfcfdc9f03587001038,4.37130670824,2.90454674875,6.84645219089,4.46918290941,4.69459173421,5.88819063378,Chicago,41.755067,-87.728534
41.852203_-87.674103_513cc792fdc9f03587001a66_Chicago.JPG,513cc792fdc9f03587001a66,2.39768955356,3.57897594074,5.9707701263,4.31933994749,7.19017083411,5.2444360286,Chicago,41.852203,-87.674103
41.875318_-87.721784_513d3878fdc9f03587002c5b_Chicago.JPG,513d3878fdc9f03587002c5b,2.75065438247,6.15033936056,5.50612356636,5.63374566867,7.12859502046,4.63840020711,Chicago,41.875318,-87.721784
41.749765_-87.764471_513cc50cfdc9f03587001811_Chicago.JPG,513cc50cfdc9f03587001811,4.82298323277,4.46628894298,4.77388316949,4.16532753672,6.47436515156,4.83219198411,Chicago,41.749765,-87.764471
41.748841_-87.780260_513cc434fdc9f0358700173f_Chicago.JPG,513cc434fdc9f0358700173f,2.375458313,6.21620761189,5.49616703677,6.20535825427,5.93652938445,5.00308030743,Chicago,41.748841,-87.780260
41.803092_-87.669049_513cb748fdc9f03587000afd_Chicago.JPG,513cb748fdc9f03587000afd,2.44584511075,2.62115341069,6.06247896733,4.40942200489,5.72453376947,5.71866615832,Chicago,41.803092,-87.669049
41.954949_-87.809718_513cc0e6fdc9f0358700140f_Chicago.JPG,513cc0e6fdc9f0358700140f,2.29489903737,3.54509003789,4.70096981637,6.16763336923,4.68537440324,3.60608978327,Chicago,41.954949,-87.809718
41.906441_-87.709422_513d3260fdc9f035870028aa_Chicago.JPG,513d3260fdc9f035870028aa,2.28582097729,5.45514227985,5.4650464544,5.77559974087,6.39273742801,3.84525677902,Chicago,41.906441,-87.709422
41.864351_-87.786373_513d2ec0fdc9f035870025da_Chicago.JPG,513d2ec0fdc9f035870025da,2.51660818301,2.88822472726,7.12859502046,3.72993862699,7.15136224625,4.36306035245,Chicago,41.864351,-87.786373
41.922367_-87.638534_513cc1c8fdc9f035870014e5_Chicago.JPG,513cc1c8fdc9f035870014e5,2.75065350113,3.84416348004,7.12859502046,4.49419315698,7.12859502046,4.95330303522,Chicago,41.922367,-87.638534
41.834068_-87.795539_513cba00fdc9f03587000d7f_Chicago.JPG,513cba00fdc9f03587000d7f,2.68825994616,4.16372003776,4.91106862438,8.33333333333,8.33333333333,6.47436515156,Chicago,41.834068,-87.795539
41.748315_-87.571050_513cba2afdc9f03587000da3_Chicago.JPG,513cba2afdc9f03587000da3,4.07132741617,6.21620761189,5.40438867465,5.31970493882,5.62607071474,6.21213697069,Chicago,41.748315,-87.571050
41.740941_-87.777746_513d2e55fdc9f03587002585_Chicago.JPG,513d2e55fdc9f03587002585,2.13848251613,3.14809799465,3.81193779866,4.46894653241,4.80128248737,6.09570192966,Chicago,41.740941,-87.777746
41.918365_-87.759653_513cc1a2fdc9f035870014bf_Chicago.JPG,513cc1a2fdc9f035870014bf,2.81977972955,2.81085891373,6.56939516478,5.81935360315,3.20903482256,4.47093668126,Chicago,41.918365,-87.759653
41.834834_-87.785663_513cc30ffdc9f0358700161b_Chicago.JPG,513cc30ffdc9f0358700161b,3.69003743611,3.9182188147,7.12859502046,5.86760271919,4.79857973667,6.47436515156,Chicago,41.834834,-87.785663
41.848093_-87.708319_513cb514fdc9f035870008dc_Chicago.JPG,513cb514fdc9f035870008dc,2.7143296667,4.2542993525,5.81544792087,7.15136224625,5.65016797664,4.64192394411,Chicago,41.848093,-87.708319
41.914732_-87.654878_513cc74cfdc9f03587001a26_Chicago.JPG,513cc74cfdc9f03587001a26,2.4829852302,4.0730778838,5.58192892562,5.69506303103,4.75609448885,3.82272652407,Chicago,41.914732,-87.654878
41.878404_-87.759728_513cc1aafdc9f035870014c9_Chicago.JPG,513cc1aafdc9f035870014c9,2.29025240708,2.80022198925,6.47436515156,4.83585592518,4.88677030836,5.03379655177,Chicago,41.878404,-87.759728
41.822464_-87.788814_513d35b0fdc9f03587002b10_Chicago.JPG,513d35b0fdc9f03587002b10,4.17825344446,4.99152294406,4.51266990873,5.26305848034,6.01853341497,3.90590472226,Chicago,41.822464,-87.788814
41.749532_-87.572287_513cb810fdc9f03587000bab_Chicago.JPG,513cb810fdc9f03587000bab,3.33409253357,3.53054976175,6.09355782896,5.8579438555,5.65153068262,4.70653806838,Chicago,41.749532,-87.572287
41.803326_-87.650669_513cc430fdc9f0358700173a_Chicago.JPG,513cc430fdc9f0358700173a,2.83343400989,3.66390196918,7.12859502046,3.2934674504,6.91777143514,4.21221901616,Chicago,41.803326,-87.650669
41.819907_-87.638485_513d2d30fdc9f035870024ad_Chicago.JPG,513d2d30fdc9f035870024ad,2.43928976368,2.96149002284,5.95694949352,7.15136224625,4.89035622468,3.72955299805,Chicago,41.819907,-87.638485
41.884431_-87.640230_513cc508fdc9f0358700180e_Chicago.JPG,513cc508fdc9f0358700180e,2.51788249211,3.37976002231,7.12859502046,6.47436515156,5.89996518468,6.21620761189,Chicago,41.884431,-87.640230
